,name,type,lat,lon
0,"Торговый центр ""Капитолий""",mall,55.8809285,37.4496309
1,"Торговый центр ""Александр Лэнд""",mall,55.8855958,37.6021837
2,Звёздный,mall,55.676925,37.504814
3,ЕвроПарк,mall,55.7668616,37.3815892
4,Место встречи Байконур,mall,55.8648865,37.6050042
5,FORT Отрадное,mall,55.8631897,37.6020531
6,Парк Хаус,mall,55.851002,37.5974616
7,ТВЦ Экстрим,mall,55.8701284,37.4697447
8,Торговый центр «Водный Мир»,mall,55.8691242,37.4692955
9,"Торговый центр ""Рублевский""",mall,55.7541778,37.4068229
10,"Торговый центр ""Западный""",mall,55.7554203,37.4027246
11,ТК «Измайловская ярмарка»,mall,55.7882285,37.7870761
12,Дом Мебели,mall,55.879239,37.6346159
13,"Торговый комплекс ""Старт""",mall,55.7902426,37.5444896
14,"Торговый центр ""Варшавский""",mall,55.6536827,37.6207051
15,"Торговый центр ""Москва""",mall,55.6735461,37.7807728
16,Ереван Плаза,mall,55.7087066,37.6221152
18,Отрадное,mall,55.8654068,37.604458
19,Атриум,mall,55.7572323,37.6590923
20,"Торговый дом ""Славич""",mall,55.8156649,37.7156005
21,"Торговый комплекс ""Митинский радиорынок""",mall,55.844236,37.3836581
23,"Торговый центр ""Капитолий""",mall,55.6921423,37.5281626
24,МариЭль,mall,55.6490795,37.7450003
25,Торговый центр «Панорама»,mall,55.6714791,37.5540558
26,"Торгово-развлекательный центр ""Пятая Авеню""",mall,55.7997474,37.48315
27,Братиславский рынок,mall,55.6579307,37.7516121
28,Л-153,mall,55.6587423,37.7419572
29,"Торговый центр ""Лейпциг""",mall,55.630284,37.4745266
31,Торгово-развлекательный центр «XL»,mall,55.8637279,37.5456286
32,Кондор,mall,55.8696213,37.666715
33,Камп,mall,55.8704267,37.663269
34,Галерея Водолей,mall,55.6127562,37.7199429
35,"Торгово-развлекательный комплекс ""Глобал Сити""",mall,55.6226193,37.606003
36,Фортуна,mall,55.8866388,37.6603157
37,Медведковский,mall,55.8881202,37.6625546
38,Метромаркет,mall,55.8058306,37.5151493
39,"Торговый центр ""Зодиак""",mall,55.8939534,37.5251247
40,Торговый центр «Бусиново»,mall,55.8817267,37.4888584
41,"Торговый центр ""Ареал""",mall,55.8976162,37.5884178
42,"Торговый дом ""Арфа""",mall,55.8943861,37.5881983
43,"Торговый комплекс ""Изумруд""",mall,55.8899043,37.5943497
44,"Торговый центр ""Квадрат""",mall,55.5700014,37.5806633
45,Алмазный мир,mall,55.8497282,37.4972327
46,"Торговый центр ""Солнечный ветер""",mall,55.805545,37.4144577
47,"Торговый центр ""Бенефис""",mall,55.8067079,37.4064064
48,"Торговый центр ""Три D""",mall,55.7352628,37.7015805
49,Универ Сити,mall,55.6933088,37.5339438
50,Южный полюс,mall,55.5864317,37.6483332
51,Премьер,mall,55.6629368,37.4859292
53,"Торговый центр ""Да""",mall,55.7108376,37.8121486
54,Автокластер 19/21,mall,55.6991096,37.8060558
56,"Торговый дом ""Перовский""",mall,55.7527927,37.8193517
57,Зелёный Проспект,mall,55.752043,37.816235
58,"Торговый корпус ""Евромаг""",mall,55.6465768,37.7156016
59,Будапешт,mall,55.7040887,37.7657381
60,"Торговый центр ""Моя ветка""",mall,55.7358789,37.8300433
61,Торговый центр «Перовский»,mall,55.7414385,37.8188191
62,Лес,mall,55.8225314,37.8232471
63,Давыдково,mall,55.7355991,37.4679029
64,Багратионовский,mall,55.7434146,37.4993309
65,София,mall,55.8037729,37.8005656
66,Капитолий,mall,55.687518,37.6039327
67,РИО,mall,55.6897413,37.602058
68,Мебель Сити,mall,55.9056657,37.5446979
69,"Торговый центр ""Вега""",mall,55.8387667,37.5721594
70,Депо Молл,mall,55.8192724,37.5775524
71,"Торговый центр ""Тимирязевский""",mall,55.8194516,37.5784778
72,"Торговый комплекс ""Депо Молл""",mall,55.8190455,37.5781072
73,Торговый центр «Гвоздь»,mall,55.8306645,37.3968754
74,"Торговый центр ""Борисовский""",mall,55.6245232,37.7091867
75,"Торговый центр ""Ковчег""",mall,55.8467744,37.3620252
76,"Торговый центр ""Наутилус""",mall,55.7591075,37.6247495
77,"Торговый центр ""Тук-Тук""",mall,55.8525463,37.3518279
78,"Торговый центр ""Мандарин""",mall,55.8550625,37.3554623
79,Час Пик,mall,55.8986493,37.6294872
80,Вешняки,mall,55.7241162,37.825113
81,Мегаком,mall,55.7233657,37.8251081
82,Торговый центр,mall,55.7523956,37.82042
84,Андрееевский,mall,55.7017204,37.6040059
85,Трамплин,mall,55.7410626,37.4154077
86,Южный (вещевой),mall,55.6219491,37.611489
87,"Торговый центр ""На Беговой""",mall,55.7743638,37.5460966
88,"Торговый центр ""Гвоздь-2""",mall,55.6758184,37.6618892
89,"Торговый центр ""Бибиревский""",mall,55.8848055,37.6009488
90,"Торгово-развлекательный центр ""Европейский""",mall,55.7444711,37.5660005
91,Никулино,mall,55.6643855,37.4693001
92,Радиорынок Старк,mall,55.6262828,37.6663284
93,"ТЦ ""Океан""",mall,55.6782448,37.6974263
94,Интер-Север,mall,55.8540722,37.4758535
96,4-й торговый центр,mall,56.0004108,37.2060051
97,3-й торговый центр,mall,55.9967692,37.2164282
98,"Торговый центр ""Нептун""",mall,55.6407845,37.6033477
99,ТЦ Савёлки,mall,55.9912796,37.2161516
100,2-й торговый центр,mall,56.0029309,37.2057155
101,"Торговый центр ""Калужский""",mall,55.6556957,37.5421767
102,1-й ТЦ,mall,56.0057843,37.2061264
104,ТЦ Зеленоградский,mall,55.9789259,37.1715858
106,"Торгово-развлекательный центр ""Облака""",mall,55.6120498,37.7326775
107,"Торговый центр ""Времена года""",mall,55.731738,37.4873238
108,Lotte Plaza,mall,55.7509076,37.5844976
109,"Торговый центр ""Меримис""",mall,55.5962719,37.6028912
110,Гранд Юг,mall,55.6095975,37.6052445
111,Любимый,mall,55.701239,37.5037339
112,Будапешт,mall,55.8973998,37.6045101
114,Ритейл Парк,mall,55.6334065,37.6243954
115,Щелчок,mall,55.8105918,37.7978313
116,"Торговый центр ""Крутицы""",mall,55.7431152,37.863905
117,Larin,mall,55.7228259,37.6749826
118,Мини Молл,mall,55.7391573,37.484492
119,Торговый центр «Черемушки»,mall,55.6701261,37.5525049
120,10-й торговый центр,mall,55.984055,37.1760769
121,Фея,mall,55.6149303,37.721292
122,"Торговый центр ""Елоховский Пассаж""",mall,55.7721823,37.6781591
123,"Дисконт-центр ""Орджоникидзе 11""",mall,55.7094022,37.5954977
124,"Торговый центр ""Рязанский""",mall,55.7181438,37.784052
125,"Торговый центр ""Ореховский""",mall,55.6223709,37.7016989
127,Торговый дом «Ольга»,mall,55.994834,37.1881999
130,Саяны,mall,55.768349,37.8327269
131,ТЦ «Саяны»,mall,55.76813,37.8320181
132,ТЦ «Кубик»,mall,55.7688194,37.8325818
133,ТЦ «Саянский»,mall,55.7691094,37.8325947
134,ТД «Ивановский»,mall,55.7697456,37.8326333
135,ТЦ «Ивановское»,mall,55.7682721,37.8337267
136,Лосинка,mall,55.8631668,37.6824295
138,"Торговый комплекс ""Принц плаза""",mall,55.6182359,37.5080281
139,"Торгово-развлекательный центр ""Спектр""",mall,55.6194266,37.5092451
140,Парк Хаус Братеево,mall,55.6252532,37.7609458
141,Петровский,mall,55.6280321,37.740965
142,На Суздальской,mall,55.7380654,37.8466584
143,"Торговый центр ""Шолохов""",mall,55.636784,37.3543591
144,"Торговый центр ""Петровский""",mall,55.6412021,37.3597421
145,"Центр дизайна ""Ленинградский""",mall,55.828066,37.4892713
146,Вальсар,mall,55.7377125,37.8546798
147,"Торговый центр ""Каспий""",mall,55.6389864,37.6039157
148,Олимп,mall,55.7512509,37.8162329
149,"Торговый центр ""Терлецкий""",mall,55.7646898,37.8248416
150,"Торговый центр ""Вешняковский пассаж""",mall,55.7204263,37.8220839
151,Манго,mall,55.857164,37.4320659
152,"Торговый центр ""Клиффстор""",mall,55.5675459,37.5737519
153,Вавилон-92,mall,55.8695806,37.6371732
155,"Торговый центр ""Апельсин""",mall,55.5673911,37.5620778
156,"Торговый центр ""Новый Век""",mall,55.7377636,37.8570749
157,"Торговый центр ""EGOmall""",mall,55.8703713,37.6380442
158,Фермер Центр,mall,55.703257,37.7262246
159,Крылья,mall,55.8096592,37.4600452
160,Алтуфьево,mall,55.901993,37.5856556
161,"Торговый центр ""Точка""",mall,55.7252292,37.7612119
162,"Торговый центр ""Город"", 1-я очередь",mall,55.7297296,37.730997
163,Место встречи Высота,mall,55.6998424,37.7654433
164,Марьинский пассаж,mall,55.6522849,37.7422122
165,"Торговая галерея ""Акрополь""",mall,55.7331093,37.5923089
166,"Торговый центр ""Компас""",mall,55.850952,37.6791726
167,"Торговый центр ""Праздник""",mall,55.8265936,37.4449086
168,ТЦ «Щёлково»,mall,55.8106154,37.8308246
169,Столица,mall,55.6195867,37.7522368
170,Вектор,mall,55.8090967,37.7984031
171,Радужный,mall,55.8692736,37.6630689
172,Триумфальный,mall,55.6831107,37.5491583
173,Город Лефортово,mall,55.7474925,37.7070013
174,Мираж,mall,55.7055852,37.7686836
175,Три кабана,mall,55.7063055,37.7653653
176,Мебель Парк,mall,55.6339045,37.4427839
177,Музыкальный парк,mall,55.6480626,37.7354701
178,Fort Ясенево,mall,55.6067319,37.536295
179,"Транспортно-пересадочный узел ""Планерная""",mall,55.8628147,37.4351082
180,Царицыно,mall,55.6223766,37.6677181
181,"Торговый центр ""Прага""",mall,55.6009076,37.6092913
182,Торговый комплекс «Гран Плюс»,mall,55.8830749,37.6055715
183,W,mall,55.5826352,37.6715246
184,Волжский,mall,55.7000216,37.7523839
185,ТЦ Арфа,mall,55.8764828,37.4222684
186,Марс,mall,55.8788321,37.5823226
187,"Торговый центр ""Серебряный Дом""",mall,55.7819776,37.704064
189,Коммунарка,mall,55.5678844,37.4777137
190,Торговый центр «Конфетти»,mall,55.6787694,37.6427646
191,"ТЦ «На Челябинской, 15»",mall,55.7788465,37.8277066
192,"торговый центр ""Альтаир-1""",mall,55.7130205,37.8210018
194,Родник,mall,55.8404826,37.3809216
195,"Торговый центр ""Штаер""",mall,55.6404775,37.6083848
196,"Торговый центр ""Свод""",mall,55.6401951,37.6068275
197,Аэробус,mall,55.6402812,37.6219248
198,Торговый центр Москва,mall,55.6163657,37.7162523
199,Москва-Тянья,mall,55.6175468,37.715778
200,"Торговый центр ""Зебра""",mall,55.716705,37.8873909
201,Торговый центр «Филёвский»,mall,55.7517592,37.514143
202,"Торговый комплекс ""Твин Плаза""",mall,55.6177495,37.505721
203,Новочеркизовский,mall,55.8005957,37.7478287
204,"Торговый центр ""Baby & Kid""",mall,55.7842771,37.7151433
205,Неглинная Галерея,mall,55.7663,37.6222382
206,Дружный,mall,55.7056858,37.7678819
207,Nikolskaya Plaza,mall,55.7579755,37.6243683
208,Северное Сияние,mall,55.5748928,37.5803034
210,"Торгово-развлекательный центр ""ВИВА!""",mall,55.5653462,37.5561608
211,"Торговый центр ""Лухмановский 24А""",mall,55.7222799,37.9053625
212,"Торговый центр ""Лианозово""",mall,55.8973848,37.5541789
213,Торговый центр «Перово Молл»,mall,55.7452567,37.7976881
215,"Торговый центр ""Южное Бутово""",mall,55.5485224,37.5425072
216,Мебельный комплекс Армада,mall,55.6144091,37.6069562
217,Каренфор,mall,55.6134598,37.6062401
218,"Торговый центр ""Азовский""",mall,55.6475796,37.5955487
219,"Торговый дом ""на Мурановской""",mall,55.8926474,37.5991123
220,Изюминка,mall,55.8976816,37.5970734
221,Город Хобби,mall,55.8037549,37.7529608
222,"Торговый центр ""Альмирал-1""",mall,55.6622229,37.4802092
223,Торговый центр «Юго-западный»,mall,55.6640975,37.4821912
224,Черкизовский пассаж,mall,55.8039385,37.7446719
225,"Торговый центр ""Золотой век""",mall,55.7481234,37.7666186
227,"Торговый центр ""Мегаполис""",mall,55.6958796,37.6649521
229,Галерея Щербинка,mall,55.5042242,37.5592089
230,ТЦ «Измайловский пассаж»,mall,55.789559,37.7525463
231,Кусково,mall,55.7399063,37.7837183
232,Молодежный,mall,55.7185907,37.4202939
233,"Торгово-развлекательный центр ""Филион""",mall,55.7439874,37.5080962
234,Грай,mall,55.6732234,37.6123601
235,"Торгово-развлекательный комплекс ""Глобал Сити""",mall,55.6229875,37.6038512
236,"Торговый дом ""Арколь""",mall,55.7674094,37.7290113
237,Аркада,mall,55.6371605,37.6560159
238,СБС-Стиль,mall,55.5951849,37.6072306
239,Таганский пассаж,mall,55.7413419,37.6586837
240,"Торговый центр ""Сфера""",mall,55.7532319,37.5759752
241,"Торговый центр ""Трио""",mall,55.740968,37.8515234
242,Меркурий,mall,55.7518613,37.8129632
244,Персей для детей,mall,55.5926459,37.6130982
245,Смолл Бирюлёвский,mall,55.5946716,37.6624532
246,Вантаж,mall,55.5938601,37.6560472
247,Бирюсинка,mall,55.5796325,37.6489262
248,Фотостудия Татвидео,mall,55.6517362,37.6188446
249,Европа,mall,55.727863,37.6137925
250,"Торговый центр ""Визит""",mall,55.7156895,37.8815249
251,Московская ярмарка увлечений,mall,55.815696,37.691235
252,Мозаика,mall,55.7107075,37.6751666
253,А58,mall,55.6502361,37.4690764
254,"Торговый центр ""Крылатский""",mall,55.7592813,37.4092146
255,"Торговый центр ""Звёздочка""",mall,55.6650981,37.4815842
256,Уютный дом,mall,55.5718475,37.4518262
257,Конкорд,mall,55.723451,37.6096719
258,Черёмушки,mall,55.6918722,37.5891495
259,"Торговый центр ""Марка""",mall,55.8791557,37.5795901
260,"Торговый центр ""Россошанка""",mall,55.5931886,37.611564
261,"Торговый комплекс ""Монтавр""",mall,55.6373335,37.7929276
263,Макссити,mall,55.7648342,37.7885244
264,Скарабей,mall,55.7044877,37.8345133
265,Нижегородский пассаж,mall,55.7385078,37.6744693
266,"Торговый центр ""Тук-Тук""",mall,55.7053941,37.4791587
267,Премьер,mall,55.6744609,37.5046836
269,ТЦ «Глобус-экстрим»,mall,55.8036839,37.7539235
270,"ТЦ ""Хайвей""",mall,55.5030709,37.5725322
271,"Торгово-административный центр ""Гавань""",mall,55.8408286,37.4854297
273,"Торговый центр ""Каширский""",mall,55.6542308,37.6460101
276,"Мебельный центр ""Империя""",mall,55.9054677,37.5392339
277,"Торговый центр ""Сомбреро""",mall,55.5945397,37.5992798
278,"Торговый центр ""Бусинка""",mall,55.8829151,37.4958668
279,Люблино,mall,55.6738534,37.7604779
280,Ареал,mall,55.6437028,37.52627
281,ХЦ Бухарест,mall,55.6553864,37.5720672
282,Prime Plaza,mall,55.6563502,37.5694843
283,ТРЦ «Гагаринский»,mall,55.706947,37.5921551
284,Варшавка 33,mall,55.5783564,37.5899033
285,"Торговый центр ""Братеевский""",mall,55.637685,37.7575427
286,"Торговый центр ""Нахимовский""",mall,55.6686271,37.5916521
287,"Торговый центр ""Ключевой""",mall,55.6399526,37.7581408
288,Бум,mall,55.6596555,37.7496834
289,Речной,mall,55.8548154,37.4776418
290,Южные ворота,mall,55.6218777,37.7833109
291,Москва-Сокол,mall,55.8080947,37.51066
292,Торгово-развлекательный центр «Калейдоскоп»,mall,55.8504828,37.4444025
293,"торговый центр ""Маяк""",mall,55.7126179,37.8163843
294,"Торговый центр ""Шангал""",mall,55.7508395,37.8203277
296,ТЦ Юность,mall,56.0002503,37.2089091
297,"Торговый центр ""Миг""",mall,55.7400017,37.861107
298,Торгово-гостиничный комплекс,mall,55.6177814,37.5110356
301,Северный,mall,55.8695723,37.5077737
302,"Торгово-развлекательный центр ""Парус""",mall,55.8852129,37.4069034
305,5-й ТЦ,mall,55.9975709,37.2365139
306,Глобал Молл,mall,55.7121283,37.6567714
307,Торгово–развлекательный центр «Зиг-Заг»,mall,55.8898078,37.5383058
308,Грин,mall,55.9778996,37.1537805
309,"Торговый центр ""Clever""",mall,55.7542335,37.7525158
310,"Торговый центр ""Город"", 2-я очередь",mall,55.7293983,37.7347125
311,Свиблово,mall,55.856199,37.6533053
312,"Торговый центр ""Астория""",mall,55.6924124,37.7274993
313,Обувь-Сити,mall,55.677847,37.5071666
314,ТЦ Арбатский,mall,55.9791193,37.1745442
315,Радуга,mall,55.5915013,37.3661964
316,"Торговый центр ""Парагон""",mall,55.7949149,37.7837091
317,Дропин,mall,55.6362845,37.5210905
318,Смоленский пассаж,mall,55.7475328,37.5812912
319,"Торговый центр ""Тропарёво""",mall,55.6305241,37.4820588
320,Рио,mall,55.6637836,37.5113105
321,"Торговый центр ""Круг""",mall,55.5696679,37.5790473
322,Алфавит,mall,55.5740999,37.5652396
323,"Торговый центр ""Лухмановский 36""",mall,55.7235659,37.9097018
324,Галерея Атлантис,mall,55.5830182,37.5952755
325,Белка,mall,55.6442781,37.5266426
326,"Торгово-развлекательный центр ""Москворечье""",mall,55.6533666,37.6462515
327,Калита,mall,55.6076726,37.532297
328,Селектика,mall,55.5983365,37.6017899
329,Ривьера,mall,55.7050148,37.6404564
331,Ковчег,mall,55.7363822,37.4674495
332,Бизнес-центр «Ла-5»,mall,55.6109553,37.2873091
333,"Торговый центр ""Клён""",mall,55.8758343,37.6655088
334,"ТЦ ""Авалон""",mall,55.733555,37.8617445
335,Парус,mall,55.8380519,37.5768556
336,"Торговый центр ""Станция""",mall,55.5424651,37.5723659
337,"Торгово-развлекательный центр ""Бутово Молл""",mall,55.5241786,37.5179072
338,"Торговый центр ""Столица""",mall,55.6045618,37.3568257
339,"Торговый центр ""Кожуховский""",mall,55.7117304,37.8984981
340,"Торговый комплекс ""Акварель""",mall,55.4990833,37.5678623
341,"Торговый центр ""Панорама""",mall,55.7352315,37.829912
342,Avenue Southwest,mall,55.6629988,37.4810314
343,Ясенево,mall,55.6119451,37.5377265
344,"Торговый центр ""Тиара""",mall,55.6974785,37.5003037
345,"Торговый центр ""Мирус авто""",mall,55.7265914,37.381272
346,Подсолнух,mall,55.5351293,37.4473787
347,"Торговый центр ""Ханой-Москва""",mall,55.8778512,37.7308245
348,Хорошо!,mall,55.7771044,37.5237413
349,Раменки Пять,mall,55.692979,37.4948294
350,"Торгово-развлекательный центр ""Браво""",mall,55.6389324,37.7590847
351,Торговый центр «МЦ»,mall,55.6401099,37.5328602
352,ТЦ «Парковый»,mall,55.8051905,37.8041446
353,Roomer,mall,55.7103424,37.6550585
354,"Торговый центр ""Митино""",mall,55.8477563,37.359936
355,"Торговый комплекс ""Мегаполис""",mall,55.84899,37.354029
356,Family Room,mall,55.6299083,37.4241264
357,Торгово-развлекательный центр «Флотилия»,mall,55.8540614,37.497057
360,Стрекоза,mall,55.4319256,37.2732166
361,Торговый центр «У Речного»,mall,55.8556918,37.4771442
363,"Торговый центр ""Косино парк""",mall,55.7148688,37.8833523
364,"Торговый комплекс ""Волна""",mall,55.7451877,37.8799764
365,Пролетарский,mall,55.6304877,37.6588447
366,"Торговый центр ""Некрасовка""",mall,55.7018446,37.9316161
367,"Торговый центр ""Ярославчик""",mall,55.87912,37.7201903
370,Торговый центр «Львово»,mall,55.2763142,37.1140128
371,"Торгово-развлекательный центр ""Каширская Плаза""",mall,55.6212756,37.7139212
372,ТРК «Миля»,mall,55.6859758,37.8537497
373,"Торгово-развлекательный центр ""Галерея""",mall,55.6207104,37.7165003
374,ТЦ «Сказка»,mall,55.6347591,37.334879
376,ТЦ Троицкое,mall,55.3855283,37.4127596
377,Mobel expo,mall,55.6724285,37.582751
378,"Торгово-развлекательный центр ""Саларис""",mall,55.6235356,37.4222294
379,"ТК ""Саларьево""",mall,55.6231952,37.4413387
380,Калач,mall,55.5960374,37.5919577
381,Место встречи Орбита,mall,55.6763052,37.6653565
382,"Торговый центр ""Море""",mall,55.6770233,37.800166
383,Ангара,mall,55.6513891,37.61244
385,Нева,mall,55.8626638,37.4711734
386,Заря,mall,55.7816908,37.7051267
387,ТЦ Алмаз,mall,55.707746,37.8288514
389,Свежий рынок Московский,mall,55.5979416,37.3465861
390,"Торгово-развлекательный центр ""Галеон""",mall,55.6477505,37.4810225
391,Kvartal West,mall,55.7070865,37.4570745
392,Эльбрус,mall,55.6309295,37.6706801
394,ТРЦ «Щёлковский»,mall,55.8110353,37.8009323
396,Город,mall,55.7130293,37.8449205
397,ТЦ «Грис Молл»,mall,55.9289371,37.5453458
398,"Торговый центр ""Зенит""",mall,55.7906971,37.6800927
399,Фудмолл «Привоз»,mall,55.6867516,37.8520106
400,Гравитация,mall,55.6245086,37.59399
401,Потапово,mall,55.5331438,37.4979041
402,Рассвет,mall,55.8240301,37.5180379
403,Митино Парк,mall,55.8409016,37.354816
404,Гастрономический центр «Станция»,mall,55.982075,37.174583
405,"Торговый центр ""Небо""",mall,55.6432369,37.3985065
406,Арена Плаза,mall,55.791307,37.5598289
408,Киргизия,mall,55.7517848,37.8201999
409,Парковый,mall,55.8053983,37.7808373
410,"Торгово–развлекательный центр ""Рио""",mall,55.9094456,37.5402996
411,"Торговый дом ""Перовский""",mall,55.7527245,37.8193517
412,РЦ «Орион»,mall,55.8691132,37.6772109
413,Виноград,mall,55.6339348,37.484252
414,Кузьминки Молл,mall,55.7018857,37.7646437
415,"Торговый центр ""Арфа""",mall,55.6990652,37.5126309
416,Место встречи Патриот,mall,55.774695,37.4675572
417,Среда,mall,55.6028232,37.6517472
418,Клубника,mall,55.7417195,37.6884929
419,Мобильный центр,mall,55.7957873,37.5924234
420,Модный центр,mall,55.79438,37.5919478
421,Детский центр,mall,55.7957227,37.5934154
422,"Торговый центр ""Монарх""",mall,55.7835734,37.5602316
423,Компьютерный центр,mall,55.7941103,37.5927691
424,"Торговый центр ""Мост""",mall,55.7085565,37.7309875
425,Парк 11,mall,55.8078321,37.5733431
426,Бирюлевский,mall,55.586623,37.6666789
427,"Торговый центр ""Домодедовский""",mall,55.609744,37.7199401
428,Торговый центр Севастополь,mall,55.650943,37.5959508
429,"Торгово-офисный центр ""Галерея 76""",mall,55.6612863,37.5436869
430,Государственный универсальный магазин (ГУМ),mall,55.7547028,37.6214889
431,Галерея Аэропорт,mall,55.8017623,37.5318965
432,Европолис,mall,55.845084,37.6630009
433,Кожевники,mall,55.7303104,37.6461196
434,Авиапарк,mall,55.7899823,37.5311187
435,"Торговый центр ""Перекрёсток""",mall,55.8004558,37.3960725
436,"Торговый центр ""Красная пресня""",mall,55.772785,37.5331434
437,ВДНХ,mall,55.8243174,37.634419
438,ТД «Первомайский»,mall,55.8055857,37.8011805
439,"Торгово-развлекательный центр ""Ладья""",mall,55.8460686,37.3581319
440,"Торговый центр ""Альмирал-2""",mall,55.6615697,37.481466
441,Детский центр,mall,55.7951317,37.593865
442,Спортивный,mall,55.7969895,37.5940166
443,"Торговый центр ""Тишинка""",mall,55.7691308,37.5831998
444,Торговый комплекс «Охотный ряд»,mall,55.7557775,37.6145998
445,Москва,mall,55.6978933,37.5604112
446,ТЦ «Измайловский»,mall,55.7926076,37.7870592
447,Фестиваль,mall,55.6778767,37.4671426
448,Торговый дом Люкс,mall,55.6762824,37.4703749
451,Мега Тёплый Cтан,mall,55.6045125,37.4925239
453,"Торговый центр ""Дружба""",mall,55.7798552,37.6013662
454,"Торгово-деловой центр ""Маркос-Молл""",mall,55.8883643,37.5888329
455,"Торговый центр ""Кантемировский""",mall,55.6377896,37.6562505
456,Кунцево Плаза,mall,55.7385689,37.4105793
457,"Торговый центр ""Водный""",mall,55.8402379,37.4915936
458,"Торгово-развлекательный комплекс ""Новомосковский""",mall,55.5932868,37.350432
459,Столица,mall,55.6470149,37.411678
460,"Торговый центр ""Садовод""",mall,55.6528268,37.828885
461,Пальтовый круг,mall,55.6523501,37.822821
462,Океания,mall,55.7279373,37.4760129
463,"Торговый центр ""Солнечный""",mall,55.6588323,37.4019119
464,Семёновский,mall,55.7829419,37.7207719
465,Горбушкин двор,mall,55.74218,37.5033407
466,"Торговый комплекс ""Горбушка""",mall,55.7411702,37.5028418
467,Columbus,mall,55.6119277,37.6070146
468,Гудзон,mall,55.6645594,37.6266356
469,"Торгово-развлекательный комплекс ""Щука""",mall,55.809449,37.4644552
470,"Торговый центр ""Шоколад""",mall,55.7404314,37.6588316
471,Торговый центр «Метрополис»,mall,55.8234014,37.4970661
472,"Торговый центр ""Крона""",mall,55.8410143,37.4873652
473,"Торговый центр ""Радуга""",mall,55.7385338,37.6666617
474,Краснопрудный,mall,55.7810168,37.6678458
475,Торговый центр «Капитолий»,mall,55.6408803,37.5306766
476,For you,mall,55.6845844,37.6211998
477,"Торгово-развлекательный центр ""Мичуринский""",mall,55.6716647,37.4460227
478,Торгово-развлекательный центр «АФИМОЛЛ Сити»,mall,55.7491456,37.5396074
479,"ТЦ ""Твой""",mall,55.8463053,37.373418
480,Metromall,mall,55.8568459,37.5586426
481,Галерея ZAR,mall,55.7509152,37.4125415
482,Садовая галерея,mall,55.7723437,37.63145
483,"Торговый центр ""Оранжевый Мир""",mall,55.8515333,37.4382736
484,Бульвар,mall,55.7578009,37.4090099
485,Солнце Москвы,mall,55.8260643,37.6284197
486,ТЦ «Сокольники»,mall,55.7885039,37.6788316
487,"Торговый центр ""На Фрязевской""",mall,55.7450241,37.8172884
488,"Торговый центр ""Бриз""",mall,55.7036684,37.6857837
489,На Покрышкина,mall,55.6652213,37.4714358
491,Мегасфера,mall,55.822287,37.6231475
493,"Торговый центр ""Зеленый""",mall,55.8131841,37.6037278
494,Торгово-офисный центр «Аркадия»,mall,55.744568,37.6301589
495,СпортEX,mall,55.7377329,37.7166091
497,Звёздочка,mall,55.741789,37.6558129
498,Botanica,mall,55.8442676,37.6372502
499,Прага,mall,55.7926534,37.5779801
0,ЦО 1432,school,55.6426021,37.3414064
1,Школа № 1355,school,55.5404804,37.5778667
2,Московский институт банковского дела,university,56.0134417,37.2019424
3,Классический пансион МГУ им. М.В. Ломоносова,school,55.7161568,37.4355618
4,Институт проблем механики им. А.Ю. Ишлинского РАН,university,55.6660831,37.4883014
5,МГВМИ,university,55.7557724,37.6969041
6,Академия социального управления,university,55.8591044,37.6551991
7,Академия экономической безопасности МВД РФ,university,55.8578218,37.6537397
8,Центр творчества и рукоделия Фея,school,55.6433361,37.4106566
9,"Центр детского творчества ""Солнцево""",school,55.64866,37.393593
10,школа №1007,school,55.6488818,37.3987263
11,Институт туризма и гостеприимства,university,55.8151108,37.6493475
12,Школа №1,school,55.6890655,37.5378735
13,"Станция юных талантов ""Солнцево""",school,55.644486,37.410415
14,Московская международная гимназия,school,55.755926,37.8012033
15,Церковно-приходская школа «Косинская»,school,55.7189918,37.858583
16,Школа №1362,school,55.7898108,37.7410624
17,Школа № 1195,school,55.7172298,37.4197645
18,Средняя школа №72,school,55.7475855,37.4985787
19,Центр образования №1473 им. Г. А. Тарана,school,55.6129542,37.2888866
20,Школа надомного обучения №381,school,55.8047269,37.7928053
21,Школа №384,school,55.7090604,37.3977818
22,Школа №383,school,55.7084309,37.3974133
23,"Школа исскуств при ДК ""Воскресенское""",school,55.5299173,37.4450512
24,Российская академия образования,university,55.7339681,37.5702253
25,ВКС-International House,school,55.9959905,37.2089259
26,"Школа № 7, филиал № 1",school,55.6791957,37.5253409
27,Н.ш. - д.с. № 1708,school,55.6853591,37.5386444
28,Начальная школа-детский сад №1620,school,55.6814973,37.5295702
29,Начальная школа-детский сад №1620,school,55.6824634,37.5250336
30,Школа №7 (филиал №2),school,55.6829241,37.5270539
31,Школа №119,school,55.6798473,37.5213993
32,"СААШ ""Марина""",school,55.6763945,37.5207685
33,Школа 1181 (для пациентов больницы),school,55.6510102,37.493042
34,"Лицей №1525 ""Воробьевы горы""",school,55.7029962,37.5544024
35,Школа № 1318 (киношкола),school,55.6870452,37.5298416
36,"Центр дополнительного образования детей ""Диалог наук""",school,55.6950395,37.5518003
37,"Школа ""Промо-М""",school,55.643379,37.47992
38,"Лингвистический центр ""Маленький принц""",school,55.5603501,37.5854943
39,"ДООЦ ""Юго-Западный""",school,55.6085997,37.5287946
40,"Лингвистический центр ""Маленький принц""",school,55.6018739,37.5452392
41,"Школа ""Ясенево""",school,55.5950379,37.5381405
42,"Православная школа во имя иконы божией Матери ""Скоропослушница""",school,55.5899136,37.6517472
43,"Государственное бюджетное образовательное учреждение города Москвы центр лечебной педагогики и дифференцированного обучения ""Возрождение""",school,55.6632193,37.6485723
44,"ННОУ ""Эрудит""",school,55.6793447,37.6545815
45,Негосударственное образовательное учреждение русская гуманитарная школа,school,55.6655864,37.6431838
46,"Школа ""ЭПОС""",school,55.68292,37.7049666
47,"ЦПМСС ""Взаимодействие""",school,55.6603447,37.6252917
48,"ЦДТ ""Логос""",school,55.7098599,37.6427218
49,"УКК ""МОСДОР""",university,55.7029036,37.7365955
50,"АНО СОШ ""Учебный центр Перспектива""",school,55.6374278,37.6143473
51,Ювенес,school,55.8393316,37.403236
52,Школа №435,school,55.7746135,37.7048526
53,Школа №1113,school,55.7691104,37.6030203
54,Moscow Business School,university,55.7045615,37.569965
55,Школа №654 имени А. Д. Фридмана. Учебный корпус №4,school,55.694833,37.7362385
56,"Центр психолого-педагогической реабилитации и коррекции ""Восточный""",school,55.7820621,37.7276916
57,Московская финансово-юридическая академия,university,55.7233757,37.6916854
58,Кафедра факультетской терапии №2,university,55.7214243,37.5660241
59,Московский государственный университет технологий и управления имени К. Г. Разумовского,university,55.7459877,37.6560388
60,Центр образования № 118,school,55.6869036,37.5295957
61,"Центр образования ""Измайлово"" № 1811",school,55.7939167,37.8147527
62,Школа № 1208 имени Героя Советского Союза М.С. Шумилова. Корпус № 1,school,55.7077593,37.7712348
63,Прогимназия № 130,school,55.7796573,37.4960053
64,"Спортивно-технический центр ""Икар""",school,55.7585593,37.7115837
65,"Спортивно-технический центр ""Икар""",school,55.7718921,37.7111201
66,Инстититут современного права и экономики,university,55.818593,37.7222249
67,Институт правовой экономики,university,55.8147923,37.7065196
68,Факультет изобразительных искусств и дизайна,university,55.8401658,37.5745562
69,Знаменская гимназия,school,55.8575416,37.4997164
70,Финансовый университет,university,55.8123278,37.6355435
71,"Детская музыкально-хоровая школа ""Радость""",school,55.8395702,37.5294679
72,"Центр еврейского образования ""Бейт швидлер""",school,55.7897637,37.6089304
73,Школа №800,school,55.719514,37.3979587
74,Школа №423,school,55.7571365,37.8020241
75,Школа № 65,school,55.7226991,37.4144154
76,Ломоносовская школа,school,55.717908,37.4211398
77,Школа здоровья № 239,school,55.712719,37.4056885
78,Школа №1195,school,55.7166073,37.415906
79,Школа №714,school,55.7232637,37.4082378
80,Университет РАО,university,55.7397641,37.546152
81,Институт гуманитарного образования и информационных технологий,university,55.7994828,37.8002438
82,Свято-Филаретовский православно-христианский институт,university,55.7607158,37.6481852
83,Школа №587,school,55.7215752,37.4287987
84,Школа № 802,school,55.7244384,37.4270222
85,Школа №77,school,55.7668171,37.7275087
86,Немецкая школа в Москве,school,55.6643708,37.4953235
87,Детский досуговый центр «Аист»,school,55.7153262,37.779866
88,Институт современного искусства,university,55.7504544,37.4978415
89,Московский институт энергобезопасности и энергосбережения,university,55.7946756,37.7852833
90,Институт Психологии и Психоанализа на Чистых прудах,university,55.760766,37.6462899
91,Московский институт психоанализа,university,55.7400701,37.5306865
92,Воскресная школа церкви Евангельских христиан-баптистов Воскресение,school,55.6427918,37.6760494
93,ИПМ им. М.В. Келдыша РАН,university,55.7762329,37.5944688
94,Математический факультет НИУ ВШЭ,university,55.7051856,37.585935
95,"Лицей № 1586, корпус 2",school,55.7141896,37.5146811
96,Школа № 2104,school,55.7495507,37.6585411
97,Филипповская Школа,school,55.7293782,37.5708461
98,Государственная классическая академия им. Маймонида,university,55.74325,37.637747
99,Российская правовая академия Министерства юстиции Российской Федерации,university,55.7931617,37.7735991
100,Высшее театральное училище (институт) имени М. С. Щепкина,university,55.7603421,37.6212011
101,Школа-студия МХАТ,university,55.7596797,37.6123951
102,Библейско-богословский институт святого апостола Андрея,university,55.7328116,37.6776434
103,Школа № 1208 имени Героя Советского Союза М.С. Шумилова. Корпус № 4,school,55.7071909,37.7710406
104,Российская экономическая школа,university,55.6980756,37.3937278
105,ГБОУ ЦПМСС «Северо-Запад»,school,55.815695,37.3984929
106,Школа № 60,school,55.736385,37.4141123
107,Школа № 64,school,55.7370554,37.4141306
108,Московский государственный гуманитарный университет им. М. А. Шолохова,university,55.7436141,37.6507396
109,Московский финансово-юридический университет МФЮА,university,55.7466939,37.7170679
110,Московский архитектурно-строительный институт,university,55.747014,37.7174864
111,Православная школа Благовест,school,55.90864,37.58566
112,б2о6,school,55.656123,37.4041211
113,Кафедра общественного здоровья и здравоохранения МГМСУ,university,55.765757,37.632161
114,Московский институт банковского дела,university,55.7908465,37.8152868
117,Школа Английского,school,55.8871929,37.6509059
118,ИМПЭ им. Грибоедова,university,55.7547996,37.7259618
119,Воскресная школа,school,55.7209014,37.8585908
120,Институт бизнеса и дизайна,university,55.78051,37.637529
121,Байтик,school,55.4702894,37.2961715
122,Московский налоговый институт,university,55.777526,37.5031599
123,Lancman School,school,55.5737094,37.5910065
124,Московская академия экономики и права,university,55.7014017,37.6245378
125,О'кей инглиш,school,55.7131516,37.7554185
126,Лига Роботов,school,55.7131135,37.7554516
127,Российский новый университет,university,55.7626653,37.6821708
129,Университет Синергия,university,55.7838211,37.7190694
130,МПГУ Физический Факультет Лабораторный корпус,university,55.7361462,37.5838244
131,Мини-школа,school,55.6942016,37.7877321
132,"Ховринская гимназия ""Лампада""",school,55.8649026,37.5089872
133,Школа Виктория-2000,school,55.7169438,37.5770098
134,Школа № 19,school,55.7025627,37.5761214
135,"Школа № 1331 ""Молодая Иверия""",school,55.7478298,37.5942907
136,Школа № 1150 имени дважды Героя Советского Союза К.К. Рокоссовского,school,55.9724485,37.1597934
137,Школа № 887. Отделение дополнительного образования детей,school,55.7351452,37.4406248
138,"Институт менеджмента, экономики и инноваций",university,55.7614352,37.612824
139,Утро,school,55.7253324,37.5256742
140,Коррекционная школа-интернат VIII вида №29,school,55.8015246,37.7016433
141,Институт экономики и культуры,university,55.7876769,37.7297327
142,Московский инновационный университет,university,55.7393167,37.6261433
143,Столичная академия малого бизнеса,university,55.7489838,37.5918986
144,Открытый институт - Высшая профессиональная школа,university,55.73696,37.688743
145,Интуит,university,55.7717148,37.5772618
146,Славяно-греко-латинская академия,university,55.7331347,37.7141835
147,Бизнес-школа CESTE Международной академии оценки и консалтинга,university,55.721783,37.6284355
148,Высший колледж рационального природопользования,university,55.7790207,37.5947947
149,Московская международная высшая школа бизнеса МИРБИС,university,55.736034,37.663795
150,Международный институт экономики и права,university,55.776605,37.6998169
151,Школа баристы и барменов,school,55.8052147,37.528516
152,"Школа ""Виктория""",school,55.7573563,37.5723477
153,Свято-Димитриевская школа,school,55.7232298,37.6002213
154,Британский центр,school,55.4757818,37.3032721
155,Дополнительное образование школы № 601,school,55.8034934,37.5409607
156,Московский институт открытого образования,university,55.7421884,37.6517003
157,Школа №370 им. генерала П. И. Батова,school,55.810851,37.7292703
158,Национальный институт имени Екатерины Великой,university,55.7817762,37.7384963
159,Институт искусства реставрации,university,55.7922423,37.764416
160,Московская Академия предпринимательства при Правительстве Москвы,university,55.8058237,37.5407999
161,Школа №334 (встр),school,55.8049005,37.7927944
162,Институт исследования товародвижения и конъюнктуры оптового рынка,university,55.8074049,37.5409439
165,Перспектива,school,55.6966698,37.5075131
167,Международный инновационный образовательный центр,school,55.691929,37.6243869
168,НОУ «Первая Школа»,school,55.8829735,37.4915995
169,Центр немецкого языка DE Lingua,school,55.7063408,37.5965042
170,Институт кино и телевидения,university,55.7758452,37.541081
171,Приборостроительный факультет МГТУ им. Баумана,university,55.7411672,37.7251772
172,Международная промышленная академия,university,55.723432,37.6326102
173,Британская высшая школа дизайна,university,55.7516637,37.6698661
174,Институт мировых цивилизаций,university,55.7707352,37.6628712
175,Воскресная школа,school,55.6037953,37.171006
176,Big Ben,school,55.6649753,37.7545153
177,"АНО СДЦ ""Барс""",school,55.6977391,37.7738466
178,Барс,school,55.7029264,37.7502666
179,"Образовательный центр ""Юниум""",school,55.74963,37.8232839
180,Университет мировых цивилизаций им. В.В. Жириновского,university,55.7273273,37.6100379
181,Лицей НИУ ВШЭ,school,55.7523702,37.6374355
182,Математический факультет МГПУ,university,55.7804342,37.6735987
183,Российская медицинская академия непрерывного профессионального образования,university,55.7596248,37.5828928
184,Итальянская школа им. Итало Кальвино,school,55.682994,37.5341919
185,Шведская школа,school,55.6829965,37.5340337
186,Московская финская школа,school,55.682999,37.5338754
187,Московская японская школа,school,55.6830015,37.5337172
188,Сколковский институт науки и технологии,university,55.6848148,37.3408536
189,Троицкая детская художественная школа,school,55.4764918,37.2951204
190,Байтик,school,55.4873199,37.3064922
191,"Центр спорта и образования ""Локомотив""",school,55.8061697,37.7423295
192,Московская академия экономики и права,university,55.6947221,37.6221032
193,"ГБОУ школа № 507, здание № 15",school,55.6603483,37.6250118
194,Воскресная школа,school,55.9280775,37.5405472
195,Первый экстернат,school,55.7429862,37.5374481
196,Русская классическая гимназия,school,55.7711404,37.6166484
197,Общеобразовательная православная школа искусств,school,55.781397,37.5767317
198,ГБОУ Школа №1601,school,55.7920118,37.5671983
199,Новая гуманитарная школа,school,55.8027705,37.5415596
200,Школа скорочтения,school,55.698902,37.9266977
201,Bambini-Club,school,55.6697134,37.4738556
202,Реавиз,university,55.8150838,37.6912708
203,Академия медико-технических наук,university,55.8266926,37.6537836
204,Университет БРИКС,university,55.7864692,37.7191892
205,"Лицей ""Москвич""",school,55.6778188,37.5178345
206,Ирида,school,55.7301696,37.8118483
207,Национальный институт дизайна,university,55.7266615,37.6389469
208,Институт Махон Хамеш,university,55.8024825,37.6935098
209,Российский государственный социальный университет,university,55.7936459,37.69458
210,Международный славянский институт,university,55.8046186,37.6295015
211,Московская Международная Академия,university,55.6551239,37.7608037
212,Спецпроектреставрация,university,55.7914797,37.7631681
213,"Школа №1505 ""Преображенская""",school,55.8039734,37.7354515
214,"Школа №1505 ""Преображенская""",school,55.8008166,37.737962
215,Московский художественно-промышленный институт,university,55.7636337,37.682392
216,Русский Гарвард,school,55.6359375,37.617555
217,Православная школа им. Преподобного Сергия Радонежского,school,55.8537147,37.6316461
218,Институт искусства реставрации,university,55.8156832,37.5732274
219,Российская международная академия туризма,university,55.7926431,37.7491951
220,АНО ДПО Московская Высшая Школа Экономики,university,55.7367262,37.6594929
221,Московский институт государственного управления и права,university,55.6767647,37.6505917
222,Институт экономической безопасности,university,55.705342,37.5499174
223,Московский государственный педагогический университет,university,55.703905,37.6196605
224,Детская художественная школа № 9,school,55.9781773,37.1634801
225,Атлас school,school,55.6966201,37.507424
226,Институт современного искусства,university,55.717205,37.4418289
227,Институт лингвистики и межкультурной коммуникации,university,55.7777623,37.6841798
228,Плюс,school,55.847034,37.4334612
229,"Высшая Школа Кино и Телевидения ""Останкино""",university,55.7325058,37.682039
230,Подсолнух,school,55.8184515,37.5900516
231,Православный Свято-Тихоновский гуманитарный университет,university,55.7720638,37.612794
232,НИИ Молекулярной медицины,university,55.7826156,37.5508587
233,МГМУ Сеченова,university,55.7804473,37.5563253
234,Академическая Гимназия,school,55.755475,37.5085821
235,Синергия,university,55.670751,37.6342248
236,Синергия,university,55.6354637,37.4383216
237,Синергия,university,55.8481655,37.4986232
238,"Детский технопарк ""Смарт-парк""",university,55.9817372,37.2045423
239,Институт клинической морфологии и цифровой патологии,university,55.7295306,37.5635411
240,Колледж электроники и информатики,university,55.981644,37.2052665
241,"Школа №1636, здание 17",school,55.6017334,37.731282
243,Kartsev,school,55.7546018,37.5869228
244,Российский университет транспорта. Академия гражданской авиации,university,55.791861,37.6047357
245,Московская высшая школа социальных и экономических наук,university,55.7572446,37.6074166
246,Институт новых углеродных материалов и технологий,university,55.7035518,37.5238921
247,Letovo Junior,school,55.6800127,37.5510505
248,Реавиз,university,55.646252,37.5243191
249,Московский Университет им. А.С. Грибоедова,university,55.7414685,37.6422756
250,Российский православный университет святого Иоанна Богослова,university,55.7672658,37.6179385
251,Российский государственный университет им. А.Н. Косыгина. Технологии. Дизайн. Искусство,university,55.7449008,37.6374858
252,Предуниверситарии московского государственного лингвистического университета,school,55.7391782,37.5951695
253,Школа ЦПМ,school,55.7537706,37.6535854
254,Детский сад №970,school,55.7905444,37.8040977
255,"Школа-интернат ""Интеллектуал""",school,55.7181295,37.4647244
256,Школа №467,school,55.7289891,37.6713802
257,"Школа № 1288, корпус № 5",school,55.7776147,37.5291545
258,Школа №1212,school,55.7991425,37.487259
259,Центр-ЮССТ НОУ,school,55.7260331,37.4208122
260,Школа №1400,school,55.7209717,37.4114012
261,12 корпус РЭУ им. Г. В. Плеханова,university,55.7120942,37.4778486
262,Школа 1910,school,55.650675,37.7620407
264,Школа №1967,school,55.6629901,37.7507997
265,ГОУ №1674,school,55.7592343,37.4029735
266,Школа с углубленным изучением английского языка № 1293 Корпус № 3,school,55.7385486,37.4045058
267,"Центр внешкольной работы ""Синегория""",school,55.7394448,37.4023908
268,Центр ЮССТ,school,55.7157512,37.4403522
269,Школа №90 им. Героя Советского Союза Е.Г. Ларикова,school,55.8341134,37.5256301
270,Политехнический колледж № 42,school,55.717753,37.4352622
271,Школа № 1321. Филиал № 3,school,55.6721357,37.7500955
272,Школа №888,school,55.7248085,37.443918
273,Школа №830 корпус №4,school,55.8141499,37.4593779
274,МГТУ им. Н. Э. Баумана (Корпус Э),university,55.7688522,37.6896215
275,"ГБОУ Школа №1080, Школьное отделение № 5",school,55.8095089,37.7203059
276,МГТУ ГА,university,55.8448886,37.4877509
277,Школа №1315,school,55.8460062,37.4811199
278,Центр образования № 1681,school,55.5650635,37.5697899
279,Лицей №1571 корпус №6,school,55.8567494,37.4440687
280,Школа №1285 структурное подразделение (начальная школа),school,55.8338083,37.418263
281,Школа № 830. Корпус № 3,school,55.8251923,37.4493216
282,Школа №224,school,55.8291421,37.4910137
283,Школа №224,school,55.8378457,37.4843581
284,Центр образования №1679 Школа здоровья,school,55.8277391,37.5192129
285,ИКСИ,university,55.6821137,37.4682647
287,Воскресная школа,school,55.7572129,37.8139517
288,Академия медиаиндустрии,university,55.7997895,37.61047
289,Интернат №108,school,55.681983,37.5265689
290,Школа №1293,school,55.7428453,37.4106066
291,Школа №81,school,55.7424419,37.4106005
292,Школа № 1514,school,55.686297,37.5283695
293,Московский финансово-юридический университет,university,55.656504,37.6212738
295,Школа №115,school,55.6532486,37.5270247
297,Специальная школа №3,school,55.6699349,37.5760101
298,Школа-интернат №61,school,55.6696845,37.5767271
299,"Центр внешкольной работы ""Зюзино"" (УПК №2)",school,55.6479616,37.5905415
300,Школа №398,school,55.7175457,37.8048564
301,Спецшкола №895,school,55.7003552,37.8137004
302,Центр образования №1420,school,55.7009762,37.8148969
303,Школа имени Ф. М. Достоевского,school,55.6865233,37.7510571
304,Школа №623,school,55.7055473,37.7871892
305,Школа №2090,school,55.7144209,37.7921939
306,Школа №776,school,55.7144452,37.7927937
307,Начальная школа - детский сад №1883,school,55.7184371,37.8030253
308,Школа №797,school,55.7548712,37.8224523
309,Центр образования №1637,school,55.7560708,37.7864197
310,Центр образования №1852,school,55.7560122,37.7792385
311,Школа №681,school,55.7589275,37.7757171
312,"Московская международная школа. Подразделение ""Планета Уран""",school,55.7633918,37.7813803
314,Московский исламский университет,university,55.6716883,37.7452352
316,ГБОУ СОШ №1793 СП1,school,55.6839042,37.8478745
317,Интернат №53,school,55.7767955,37.728609
318,Школа №1324,school,55.755097,37.8201818
319,ЦРР №837,school,55.7999375,37.7851728
322,"Школа ""Вита""",school,55.7343311,37.4798654
323,Финансовый университет при Правительстве РФ,university,55.7387488,37.4875521
324,Школа №22,school,55.6986533,37.5553316
325,Школа №1265,school,55.6991038,37.5582731
326,"Лицей ""Вторая Школа""",school,55.6978181,37.5563936
327,Институт психологии РАН,university,55.819418,37.6468738
328,Школа №171,school,55.7222711,37.5795407
329,Первый московский государственный медицинский университет им. И. М. Сеченова,university,55.7333304,37.5703032
330,Московский институт права (учебный корпус №1),university,55.8169902,37.5827099
331,Центр образования №775,school,55.6752927,37.7535069
332,"НОУ Школа ""Эрудит-2""",school,55.6757566,37.7499035
333,"ЦДТ ""Царицыно""",school,55.6308695,37.6522876
334,Школа №1640,school,55.6323645,37.6519217
335,"Кафедры анатомии, гистологии, микробиологии академии им. И. М. Сеченова",university,55.7565079,37.6126806
336,Лицей №504,school,55.6678229,37.6270009
337,Корпус 3,university,55.7302349,37.81649
338,"Школа № 630 имени дважды Героя Советского Союза Г.П. Кравченко. Здание ""На Ленинском""",school,55.7180444,37.593162
339,Школа №730,school,55.6599999,37.6266505
340,Школа №183,school,55.8740976,37.5560007
341,Школа № 749,school,55.7307754,37.4107111
342,Школа 1040,school,55.6438454,37.7374497
343,Школа 1147,school,55.6441597,37.7361151
345,Центр образования №2010,school,55.6673041,37.748292
346,Школа № 296,school,55.8312193,37.5914633
347,Кадетская школа №1770,school,55.6861271,37.6886855
348,"Детский оздоровительно-образовательный центр ""Южный""",school,55.6828058,37.7049521
350,Школа № 283. Корпус № 2,school,55.8914151,37.6643298
351,Школа №283,school,55.8895329,37.671121
352,Школа №950,school,55.8602701,37.6046609
353,Социально-ребилитационный центр Отрадное,school,55.8613273,37.6059881
354,Школа № 536,school,55.6436935,37.5956243
355,Центр образования №548 Царицыно,school,55.6020586,37.7169951
356,"Школа №544, корпус 3",school,55.602306,37.7190308
357,Школа №544,school,55.6068626,37.7146404
358,Школа №1980,school,55.5345682,37.5327808
360,Школа № 370,school,55.6902904,37.5845344
363,Лицей им. Софьи Нюберг,school,55.6763331,37.5817519
364,Школа №585,school,55.5985768,37.7191269
365,Школа-вуз «Современное образование»,school,55.7687625,37.6355598
366,Высшая коммерческая школа ВАВТ Минэкономразвития России,school,55.8789001,37.4680313
367,Центр образования №117,school,55.6736121,37.531363
368,Школа №117,school,55.6720714,37.5340263
369,Школа № 1353,school,55.9951369,37.2027105
370,Школа № 617,school,55.9959284,37.2019233
371,Школа № 1703,school,55.9940156,37.2033917
372,Школа № 1710,school,55.9935619,37.2055778
373,Школа № 618,school,55.9937483,37.2078315
374,"Школа № 618, начальные классы",school,55.9927617,37.2083786
375,"Школа № 1557 им. П.Л. Капицы, корп. 344А",school,55.9943305,37.2220312
376,Школа № 1704,school,55.9946276,37.2185478
377,ДЮЦ Орлёнок,school,55.9929199,37.2174898
378,Школа №2000 корпус №3,school,55.6411232,37.6598579
379,"Школа № 842, корп. 142",school,56.006007,37.21167
380,Школа № 618,school,56.0028771,37.2004668
381,"ЦПМСС ""Взаимодействие""",school,55.6911002,37.6117686
383,Школа №49. Школьный корпус,school,55.6420096,37.546718
385,"""Школа здоровья"" №821",school,55.8455876,37.4014573
387,Цетр образования №1601,school,55.792534,37.573236
388,"Корпоративный университет ОАО ""РЖД""",university,55.5144112,37.5600172
389,спецшкола № 6,school,55.7298821,37.4332153
390,Школа № 808,school,55.7291773,37.4272583
393,Школа № 367,school,55.9731688,37.2025695
395,Прогимназия №1584,school,55.7449749,37.4301627
397,Школа № 489,school,55.7176541,37.7368662
398,Школа № 841,school,55.7173734,37.735468
399,Школа №597,school,55.8660083,37.4896871
400,"Школа № 1557 им. П. Капицы, корп. 529",school,55.99008,37.25543
402,Школа №918,school,55.6702373,37.7224202
403,Центр образования №773,school,55.6894716,37.7288475
404,Школа №773,school,55.6881679,37.7293032
405,Школа №1256 имени Героя Советского Союза И. С. Полбина (корпус 2),school,55.6818471,37.7275647
406,Центр образования №1465 имени адмирала Н.Г. Кузнецова,school,55.7451143,37.5598952
407,Школа № 2101,school,55.7415895,37.4777674
408,Школа №1100,school,55.6628895,37.5317166
411,Школа № 809,school,55.717471,37.4051644
412,"Школа № 2126 ""Перово""",school,55.7428651,37.7590491
413,"Международная гимназия ""Флагман""",school,55.740033,37.8475278
414,Школа №2101,school,55.7360516,37.4624765
415,Школа №1351,school,55.741376,37.85758
417,Гимназия №1592. Отделение №2043,school,55.8749129,37.5544011
418,"Центр образования и спорта ""Москва-98"". Школа № 2",school,55.6802679,37.4849926
419,Школа №964,school,55.8971022,37.6161054
420,Школа №1413,school,55.8966871,37.6174649
421,Центр образования №1852,school,55.7570633,37.8035144
422,Центр образования №1497,school,55.7446262,37.4927263
423,"ГБОУ ""Школа Глория""",school,55.8958252,37.6157141
424,"Школа Глория, корпус № 10",school,55.8951174,37.6250771
425,Школа №2101,school,55.7347513,37.4804259
426,Школа №73,school,55.7328756,37.4672408
427,Школа №262,school,55.732406,37.4647222
428,Центр образования №1854 (8-11 классы),school,55.8025995,37.4717526
429,Навигацкая школа,school,55.7310613,37.4555855
430,Школа №336,school,55.7095905,37.7571555
431,Спорткомплекс МГСУ,university,55.8537705,37.6951485
432,"МГМСУ им. Евдокимова, КМЦ",university,55.7387032,37.7660259
433,Московская богословская семинария евангельских христиан-баптистов,school,55.7461854,37.7561497
435,Центр Непрерывного Ускоренного Обучения,school,55.6575068,37.7021117
436,Школа №1229,school,55.7504613,37.6793611
438,Институт мировой экономики и информатизации,university,55.7028123,37.7366217
439,Лицей города Троицка,school,55.4754429,37.3006494
440,Гимназия имени Н. В. Пушкова,school,55.4743205,37.3008301
441,Российский заочный институт текстильной и лёгкой промышленности,university,55.7884528,37.4879677
442,Школа №707,school,55.7971548,37.7735426
443,Горнолыжная школа ЦСКА,school,55.744986,37.4326186
444,ММА им. Сеченова (Физический корпус),university,55.796178,37.7848887
445,Роботоцентр МГТУ,university,55.7931469,37.7750611
446,"ГБОУ Школа в Капотне (Учебный корпус ""Кузнецкий"")",school,55.6359101,37.7976899
448,Воскресная школа при храме Св. Николая,school,55.7320652,37.5904566
449,"НОУ ""Развитие"" (школа компенсирующего обучения)",school,55.6715593,37.5647551
450,"Школа ""Покровский квартал"". Здание на Б. Трехсвятительском",school,55.7549631,37.6460396
451,Школа №664,school,55.8199241,37.8663732
452,Высшая школа бизнеса,university,55.6998732,37.5408003
453,Здание экономического факультета МГУ,university,55.6959923,37.5377967
454,Российский государственный медицинский университет,university,55.7315386,37.5770543
455,"ГБОУ школа № 1363, корпус 2",school,55.7066325,37.8233965
456,Школа №1937,school,55.6997432,37.8146225
457,Школа №394,school,55.70516,37.7859633
458,Школа № 468,school,55.7129864,37.7710257
460,Московский государственный гуманитарный университет имени М. А. Шолохова,university,55.7315327,37.7399777
461,Московский городской педагогический университет,university,55.7729737,37.6145258
462,"ЦО ""Самбо-70""",school,55.6308846,37.4872392
463,Факультет права НИУ ВШЭ,university,55.7554304,37.6464305
464,Лицей №1571 корпус №2,school,55.8618588,37.4455613
465,Лицей № 1571 корпус 3,school,55.8626615,37.4417625
466,Институт государственного администрирования,university,55.6824579,37.5344962
467,Школа № 26,school,55.6944192,37.5504454
468,Школа № 25,school,55.6952633,37.5489463
469,Школа №1532. Корпус школьного образования №01,school,55.6219218,37.4914937
470,Факультет педагогики и психологии МПГУ,university,55.7701143,37.6239652
471,ГБОУ Школа 1596,school,55.6425645,37.371545
472,Школа №951,school,55.8920145,37.6769757
473,Школа 2,school,55.4877046,37.3008978
474,Школа №6,school,55.490295,37.2995677
480,"Образовательный комплекс ""Юго-Запад""",school,55.4937458,37.3154474
481,"ГБОУ ""Школа № 1251 имени генерала Шарля де Голля""",school,55.7999928,37.5081815
482,Университет Российской академии образования,university,55.7304373,37.6225795
483,"НОУ ""Школа св. Георгия""",school,55.6868672,37.7454194
484,Школа №1429 имени Героя Советского Союза Н.А. Боброва,school,55.77892,37.6867318
485,Школа №478,school,55.71377,37.741121
486,"ЦТРиГО ""Жемчужина""",school,55.7134945,37.7377764
487,Центр образования №1496,school,55.7234639,37.6057452
488,Начальная школа г. Троицка,school,55.4749339,37.3103066
489,Школа №954,school,55.8952138,37.6353503
493,Школа № 1017,school,55.6368759,37.3432698
494,Центр образования № 1467,school,55.6394919,37.347668
495,Школа №1018,school,55.6414326,37.3508787
496,The International School of Moscow,school,55.765232,37.4329783
497,Московский университет им. С. Ю. Витте,university,55.7004103,37.6549425
499,Академия социального управления,university,55.672743,37.7203481
500,Российский государственный университет социальных технологий,university,55.8280277,37.7260653
501,Институт соц. менеджмента при HUCE,university,55.8260077,37.7277965
502,"ГБОУ ""Школа № 1251 имени генерала Шарля де Голля""",school,55.7960365,37.5056424
503,Школа XXI век,school,55.7459077,37.701383
504,Школа №459,school,55.7388464,37.7060765
505,Рогожская Древлеправославная общеобразовательная школа,school,55.7387866,37.7012173
506,"Государственный университет просвещения, ИФИ",university,55.7730699,37.6824894
507,ГБПОУ ДЗМ Медицинский колледж № 1 СП № 1,school,55.6662877,37.6315817
508,Лицей №1303,school,55.7518616,37.6791705
509,Школа №415,school,55.7574042,37.6897461
510,"Школа № 1321 ""Ковчег""",school,55.755963,37.689715
511,Школа №444,school,55.7914234,37.7963295
512,Школа 1379,school,55.673814,37.5510975
513,Школа 1205,school,55.676182,37.5566572
514,Школа 1205,school,55.6769536,37.5544505
517,Школа №751 (начальные классы),school,55.8843317,37.6969641
518,"Факультет истории, политологии и права РГГУ",university,55.7564642,37.6210983
519,Школа №1080 (школьное отделение №3),school,55.8016238,37.7211325
520,Школа №1310,school,55.7426753,37.7825148
521,Школа № 1273. Корпус школьного образования №6,school,55.627384,37.5241024
522,Гимназия №1799 Школьное отделение 3,school,55.8018196,37.7168169
523,Школа 1080,school,55.8041024,37.72746
524,МГЮУ им. О. Е. Кутафина (МГЮА),university,55.8066677,37.7305467
525,Институт медицинской паразитологии и тропической медицины им. Е. И. Марциновского,university,55.7276875,37.5649678
527,Школа № 1987. Начальная школа,school,55.6597354,37.7758
528,Лицей № 1533,school,55.6807249,37.5617659
532,Школа № 1862. Корпус школьного образования №4,school,55.650346,37.6082315
533,Школа № 2016. Корпус школьного образования №1,school,55.651927,37.6080146
534,Школа № 1315,school,55.8478303,37.4861106
535,Школа № 1542. Корпус школьного образования №3,school,55.6490417,37.383256
536,Колледж XXI СОШ,school,55.6498324,37.3834201
537,Московский университет МВД,university,55.7542945,37.6396772
538,Московский государственный академический художественный институт имени В. И. Сурикова,university,55.7417011,37.6214895
539,Школа раннего развития «Приоритет»,school,55.8009232,37.4526391
540,"МЦО ""Атлантик""",school,55.7174892,37.6722807
541,Школа № 500,school,55.7133713,37.6727839
543,Интернат №4,school,55.7271974,37.6752442
544,Кадетская школа-интернат №69,school,55.6704931,37.523219
545,Школа-интернат №62,school,55.6706078,37.5254816
547,Центр образования №1311 Тхия,school,55.6716899,37.5236035
548,Школа-интернат №62,school,55.6713823,37.5251384
549,СУНЦ МГУ,school,55.7194408,37.464605
550,Физкультурно-оздоровительный комплекс Восход,school,55.646664,37.4030705
551,Школа № 1206. Корпус школьного образования №9,school,55.615628,37.5333957
552,"Школа №967, школьное отделение №1",school,55.8791233,37.6522682
553,ГБОУ ШМК Бибирево,school,55.8882138,37.6191407
554,"Школа № 2126 ""Перово""",school,55.7426092,37.7624304
555,Лицей №1571 корпус №5,school,55.8560964,37.4442916
556,Центр дополнительного образования 1095,school,55.8768013,37.6775765
557,Специальная (коррекционная) школа-интернат № 102,school,55.8534073,37.6517343
558,"Центр образования № 1828 ""Сабурово""",school,55.639843,37.6971665
559,Спорткомплекс «Борисово»,school,55.636303,37.726978
560,Вечерняя школа №96,school,55.7323851,37.4087555
561,Гимназия 1596,school,55.6415076,37.3715959
562,ГБОУ Школа 1596,school,55.6425608,37.371136
563,Школа № 1793,school,55.6892791,37.8502996
564,Школа № 519,school,55.6839751,37.7201125
565,Школа №1223,school,55.8386699,37.5272356
566,"Школа №90 ""Многопрофильный образовательный комплекс"" имени Героя Советского Союза Е.Г.Ларикова",school,55.8390658,37.5259885
567,Знайка,school,55.8421141,37.5314573
568,Школа №891,school,55.7211327,37.8292776
569,Лицей №1553,school,55.7210683,37.6491053
570,Школа №1386,school,55.7164928,37.7488785
571,Школа №488,school,55.7121068,37.742159
572,Центр образования №1404 Гамма,school,55.7161704,37.8271856
573,Гимназия №1512,school,55.7184103,37.8302964
574,Школа № 1912 им. Бауыржана Момышулы,school,55.979269,37.1686854
575,"Школа № 1194, корп. 1556",school,55.9801021,37.1534851
576,"Школа № 1194, корп. 1555",school,55.98111,37.1537108
577,Школа №751,school,55.8841648,37.698794
578,Школа №947,school,55.5847305,37.6739715
579,Школа №233,school,55.8746037,37.6504494
580,Школа № 1375,school,55.6813942,37.6566679
581,Школа №311,school,55.8742486,37.6624178
583,Школа № 1505 «Преображенская»,school,55.7955071,37.7283299
584,Школа №368 (Здание №1),school,55.8221012,37.8180648
585,Центр образования № 1681,school,55.5655995,37.5704244
586,Школа №1994,school,55.549979,37.5374688
587,"Школа №953, ШО 4",school,55.8966981,37.5960061
588,Школа №249,school,55.8944131,37.5941337
589,"Школа №953, ШО 1",school,55.8966844,37.5896343
590,Школа №139,school,55.8914523,37.5930648
591,Общеобразовательная школа «Локомотив»,school,55.8040485,37.74375
592,Лицей №1571,school,55.8565268,37.4440965
593,Центр образования №1863,school,55.5503277,37.5502742
594,Центр образования №1883 Бутово,school,55.5497062,37.5472408
595,Центр образования № 1863,school,55.5495396,37.5508428
596,Школа №1916,school,55.5427624,37.5436987
598,Школа № 2007,school,55.5445356,37.5330864
599,Детский сад № 2462,school,55.5449536,37.5312784
601,Учебный центр работников АПК,school,55.600196,37.348556
602,Школа № 2065,school,55.6034235,37.345279
603,Центр образования №1483 (встр),school,55.790625,37.7936681
604,Школа №2006,school,55.5661571,37.58203
605,Школа №1356,school,55.5671983,37.5813755
606,Школа №1174,school,55.5635673,37.5758823
607,Школа № 719,school,55.9842089,37.1860152
608,Начальная школа № 1853,school,55.9857845,37.178607
609,Центр образования № 1613,school,55.5738901,37.5867219
610,"Школа № 1194, корп. 1548",school,55.9792299,37.1549462
611,"Школа № 1194, корп. 1547",school,55.9792544,37.1568255
612,Школа №2064,school,55.5950624,37.3471654
613,"МФЮА УК ""Бибирево""",university,55.8862376,37.6142205
614,"Школа №878, отделение №1",school,55.6097946,37.7011671
615,ЦО №627,school,55.7242809,37.6355556
617,Школа №69 им. Б.Ш. Окуджавы,school,55.8162817,37.3985762
618,Школа № 1527,school,55.6822055,37.6689442
619,Школа №956,school,55.8678901,37.6426931
620,Кадетская школа №1721,school,55.8126815,37.4061986
621,Школа №1136,school,55.814717,37.402114
622,Школа № 883 корпус «Ленинград»,school,55.8625318,37.4272072
623,Школа №2044,school,55.9266992,37.5423637
624,Школа №2117,school,55.5107127,37.5693624
625,Школа № 2117,school,55.5119708,37.5700777
626,Школа 1176,school,55.5094,37.5782006
628,ГБОУ СОШ № 978 здание № 2,school,55.6816762,37.6427718
629,ГБОУ школа № 463 корпус №1,school,55.6793275,37.6726477
630,Школа №218,school,55.8085809,37.5608891
631,Центр образования № 218,school,55.8121972,37.5747946
632,Школа №88,school,55.7368012,37.6812459
633,Школа №646,school,55.7976044,37.7853647
634,Школа №1955 ШО 2,school,55.8796704,37.68846
635,Школа № 1524 к.2,school,55.6927455,37.7200943
636,"Образовательный центр ""Газпром""",school,55.6628519,37.5586915
637,Школа №419,school,55.799679,37.7963295
638,Школа № 883 корпус «Москва»,school,55.8607493,37.4316278
639,Школа №1301 имени Е. Т. Гайдара,school,55.7805738,37.7237752
640,ИМИСС МГУ,university,55.700992,37.5391123
641,Типография МГУ,university,55.6969453,37.5371538
642,"Школа № 429 ""Соколиная гора"". Школьное здание",school,55.7754703,37.7248509
643,Школа № 853,school,55.9967829,37.1867475
644,Школа № 1528 им. Панфилова,school,55.9955581,37.1790473
645,"Школа № 1151, здание 3",school,55.985876,37.1604618
646,Школа № 1151,school,55.9870108,37.1546115
647,"Школа № 1194, корп. 1530",school,55.9818714,37.1565997
648,Школа № 1440,school,55.7575327,37.4126889
649,Школа № 2045,school,55.9752699,37.1551836
650,Школа № 602,school,55.987227,37.1747896
651,Школа № 1692,school,55.9876394,37.1761362
652,Институт делового администрирования МГПУ,university,55.9941294,37.1711979
653,Начальная школа № 1701,school,55.9930425,37.1706238
654,Школа №2,school,55.5020141,37.5623721
655,Школа №11,school,55.6887606,37.538679
656,Начальная школа №2553,school,55.7522833,37.8284181
657,Московский финансово-юридический университет,university,55.6780269,37.623993
658,Школа № 609,school,55.9981198,37.2209467
659,Школа №883 корпус Севастополь,school,55.8611039,37.4229584
660,Московская государственная академия ветеринарной медицины и биотехнологии имени К. И. Скрябина,university,55.6982947,37.7982023
661,"Школа № 1354 ""Вектор"". Корпус ""Запад""",school,55.5499298,37.5630617
662,"Школа № 1354 ""Вектор"". Лабораторный корпус",school,55.5489686,37.5631357
663,"Школа № 1354 ""Вектор"". Корпус ""Восток""",school,55.5480666,37.5634067
664,Школа №1139,school,55.8609718,37.6771567
665,Школа № 1454 «Тимирязевская»,school,55.8125141,37.5605762
666,Школа № 1010,school,55.770877,37.492178
667,Школа № 460 имени дважды Героев Советского Союза А.А. Головачёва и С.Ф. Шутова (ШП-3),school,55.6743875,37.8097393
668,Школа 1605,school,55.7789532,37.4819083
669,Лицей №1560 Многопрофильный,school,55.7803493,37.4840806
670,Школа № 868,school,55.6212498,37.6533046
671,Школа №606,school,55.8718432,37.6135458
672,Школа №1411 (СП-761),school,55.8687417,37.5961069
673,Школа №970,school,55.8726849,37.588898
674,Высшая школа бизнеса,university,55.6983542,37.5315973
675,Отдел флоры,university,55.7067036,37.527415
677,Специальная (коррекционная) общеобразовательная школа-интернат № 52,school,55.8135341,37.5655981
678,Школа № 2115. Корпус школьного образования № 3,school,55.6693903,37.5638749
679,Школа №709,school,55.9354499,37.5565767
680,Первый Московский государственный медицинский университет им. И. М. Сеченова,university,55.7313396,37.5721489
681,Школа № 870,school,55.6238793,37.6639606
682,Школа №1363,school,55.6978026,37.8194295
683,"Лицей № 1571, корпус 7 «Созвездие»",school,55.8588754,37.4441623
684,Школа № 950,school,55.8589225,37.6185548
685,«Высшая школа экономики» АУЗ № 11,university,55.8157458,37.5249115
686,Школа №2000 корпус №1,school,55.6421954,37.6600432
687,Школа надомного обучения №388,school,55.8938225,37.5896932
688,Школа № 547,school,55.7092631,37.6404573
689,Центр образования № 1408,school,55.7006786,37.7750219
690,Школа №2128,school,55.7389608,37.8500501
691,Интернат №73,school,55.6647519,37.6081418
692,Школа № 1151,school,55.9878448,37.1517873
693,Воскресная школа при храме,school,55.6912113,37.5938082
694,Школа № 170 имени А. П. Чехова. Корпус 3.,school,55.651123,37.5190565
695,"Школа №1980, структурное подразделение №4",school,55.5318042,37.5231464
696,Школа №1980,school,55.5323636,37.5289214
697,Школа №1946,school,55.5300356,37.5143176
698,Школа №1368,school,55.5333468,37.5025891
699,Школа № 2009,school,55.5407827,37.5197941
701,Школа №758,school,55.8993295,37.5902186
702,Гимназия №1539,school,55.8105066,37.6418595
703,Центр образования №1926,school,55.7329393,37.8605393
704,Школа №1591 1 корпус,school,55.7417257,37.872528
705,Школа №1591 3 корпус,school,55.7418274,37.8745332
706,Школа №1591 2 корпус,school,55.7441388,37.8703309
707,Школа №1048,school,55.7375056,37.8636844
708,Центр образования №1927,school,55.7364129,37.8637074
709,Школа №1200,school,55.7420424,37.8591332
710,Школа №880,school,55.609456,37.5888457
711,"Школа № 1474, подразделение 12",school,55.8707138,37.4931824
712,"Школа № 429 ""Соколиная гора"". Школьное здание",school,55.7685831,37.7331741
713,Гимназия №1508,school,55.7920862,37.8026258
714,Школа №1319,school,55.6525027,37.7603479
715,"Курчатовская школа корпус ""Факультет""",school,55.7973449,37.4884448
717,Школа №763,school,55.8837346,37.694233
718,Школа №1985,school,55.8870476,37.3915839
719,Школа №51. Корпус №4,school,55.6442337,37.482071
720,Школа №1955,school,55.8849929,37.6831031
721,Школа №1207,school,55.6058069,37.7097687
722,Школа № 869,school,55.6155795,37.6468005
723,Школа №575,school,55.6012632,37.7131464
724,Школа №916,school,55.6118493,37.7128652
725,ЦЛПиДО,school,55.6299408,37.6753011
726,Школа №2031,school,55.7135363,37.8520312
727,Гимназия №1534 Школьное отделение №2,school,55.6820925,37.5707995
729,ГБОУ Гимназия № 1534,school,55.6851349,37.5741934
730,Школа №544,school,55.5961737,37.7195198
731,Школа № 770,school,55.6348918,37.6821351
732,Школа №788,school,55.7460576,37.7702573
733,"ЦДТ ""Логос""",school,55.6304467,37.6799684
734,Школа №2036 (учебный корпус №2),school,55.7102991,37.8847219
735,Школа №2031,school,55.7099725,37.8910666
736,Школа №2036 (учебный корпус №1),school,55.7101244,37.88799
737,Школа №2031,school,55.7134748,37.8957398
738,Школа №2036 (учебный корпус №3),school,55.7149883,37.889726
739,Школа №2026 (учебный корпус №11),school,55.7178168,37.8840453
740,"ЦДТ ""Царицыно""",school,55.6341756,37.6671377
741,Школа-пансион Плёсково,school,55.4137517,37.0938843
742,Школа №1179. Корпус школьного образования №2,school,55.6365862,37.6090692
743,Школа №1179. Корпус школьного образования №1 (Главное здание),school,55.6382055,37.6092185
744,Московский Приборостроительный Техникум,university,55.6649952,37.5978084
745,Школа №979,school,55.6033917,37.7459276
746,Санаторная школа-интернат №32,school,55.5400996,37.5130455
747,Школа №832,school,55.605545,37.7043986
748,Школа №1771 (начальная),school,55.6062206,37.7271051
749,НИИ по сельскохозяйственному использованию сточных вод,university,55.4730871,37.543785
750,ГБОУ школа № 2083,school,55.4768324,37.5388467
751,Школа №840,school,55.6260928,37.6527135
752,Школа № 904,school,55.633515,37.6658515
753,"Курчатовская школа ""ФОК""",school,55.8050206,37.4699896
754,Школа № 733,school,55.7694685,37.7127513
755,Школа №871,school,55.6174085,37.7357033
756,Центр образования №1433,school,55.61935,37.7356804
758,Школа №90 (СП-1),school,55.7942603,37.5162208
759,Школа №1287 (1),school,55.7962258,37.5205717
760,Школа №2097 корпус 6,school,55.8389229,37.4042382
761,Школа №390,school,55.8176903,37.7158655
762,Школа №2000 корпус №2,school,55.641803,37.6608917
764,Школа № 2093,school,55.7504036,37.8037409
765,Московский городской университет. Центр проектного творчества,university,55.7805673,37.6363956
766,Школа №787,school,55.746301,37.8108187
767,Школа № 501,school,55.6210528,37.663093
768,Школа №1370 корпус 3,school,55.8829323,37.5911914
769,Школа №285 имени В.А. Молодцова,school,55.8762763,37.6302045
770,Школа №1504 (школьный корпус №3),school,55.7553808,37.837694
771,Школа №1504 (школьный корпус №2),school,55.7570807,37.837653
772,Школа №982,school,55.6407751,37.6745832
773,Школа №975,school,55.640089,37.7741036
774,Гимназия №1517,school,55.7858566,37.4580566
775,Школа №2200 корпус 4,school,55.8047933,37.7906194
776,Школа №2200 корпус 1,school,55.8073783,37.8063305
777,Школа № 1384 имени А. А. Леманского,school,55.7982326,37.515783
778,Школа №945,school,55.6153101,37.7366679
779,Школа № 1370. Корпус 4,school,55.8815106,37.5942509
780,"Школа №1352 (корпус на Щёлковском шс., 77А)",school,55.813087,37.8042638
781,Школа №1370 корпус 1,school,55.8837855,37.5940064
782,Школа №1370 корпус 2,school,55.8841771,37.5958879
783,Школа № 1536. Корпус школьного образования № 3,school,55.6839078,37.5458227
784,Детская школа искусств «Родник»,school,55.6067823,37.7369376
785,"Школа №1636, здание 10",school,55.6077717,37.7384529
786,"Школа №1636, здание 9",school,55.6085976,37.7372412
787,"Школа № 429 ""Соколиная гора"". Школьное здание",school,55.7627029,37.7319887
788,Православная гимназия Сабурово,school,55.6063226,37.7388712
790,Центр образования №1452 Богородский,school,55.8071051,37.708861
791,"""Школа Глория"" (Школа № 3)",school,55.901944,37.5903431
792,"Гимназия ""Эллада""",school,55.643315,37.6714518
794,Школа № 2017,school,55.6361605,37.7178026
795,Наследник,school,55.6360298,37.7221514
796,Школа №1034,school,55.6329595,37.7581561
797,Школа № 1034,school,55.6316908,37.7584732
798,Гимназия №1587,school,55.6353301,37.7674789
799,Начальная школа-детский сад № 1708,school,55.6758483,37.5238924
800,Школа №998,school,55.640508,37.7663596
801,Социально-экономический институт,university,55.7247028,37.7008995
802,Школа №999,school,55.639643,37.7640597
803,Начальная школа №992,school,55.6389934,37.7628296
804,"Центр образования №1861 ""Загорье""",school,55.5781154,37.6797365
805,"Школа №947, Начальная школа им. А. Эйнштейна",school,55.5823994,37.6778301
806,Школа №1210,school,55.8003725,37.4567543
807,Коррекционная спецшкола №442,school,55.8015355,37.8021316
808,ММА им. Сеченова (Физический корпус),university,55.7958742,37.7853003
809,"ГБОУ ""Школа № 1454 ""Тимирязевская""",school,55.834045,37.5609513
810,Школа № 1210,school,55.7929162,37.4556715
811,Специальная общеобразовательная школа №7,school,55.8012596,37.490871
812,Кадетская школа-интернат № 11,school,55.7415015,37.4087088
813,Центр Образования №1874 (Старшая школа),school,55.8033777,37.4635543
814,Школа № 104,school,55.6841211,37.5646599
815,Дендрарий Ботанического сада МГУ,university,55.7065704,37.5279466
816,Школа № 1232,school,55.743093,37.5387829
817,Школа №1269,school,55.7550073,37.7868144
818,Школа №450,school,55.7539862,37.7863316
819,Школа №5,school,55.5149439,37.5315169
820,Школа №74,school,55.727616,37.523302
822,Елизаветинская гимназия,school,55.7373544,37.6239743
823,Школа 2070,school,55.5721051,37.4804341
824,"Средняя школа № 536, отделение № 2",school,55.6496097,37.5998611
825,ГБПОУ Технический пожарно-спасательный колледж им. В.М. Максимчука,school,55.649517,37.6029484
826,Школа №1623,school,55.6275861,37.6137114
827,Лицей 1791,school,55.5717265,37.4820645
828,Школа № 56 им. академика В.А. Легасова. Корпус 2,school,55.7450747,37.544995
829,"ГБОУ ""Школа № 67"", отделение общего образования",school,55.7385691,37.5183621
830,Начальная школа №2086,school,55.6917126,37.5448426
831,Лицей №1533,school,55.6922876,37.5438838
833,Школа №1099,school,55.8743686,37.724078
834,Лицей №1537,school,55.8742268,37.719222
835,Школа № 534 Корпус 1,school,55.6281801,37.7382903
836,Школа № 534 Корпус 3,school,55.6285027,37.7474005
837,Специальная (коррекционная) школа №991,school,55.6248291,37.7498145
838,"Гимназия № 1569 ""Созвездие""",school,55.6237287,37.7478421
839,"Школа № 1552, здание №2",school,55.6250583,37.7448679
841,Вешняковская школа. Школьное отделение Ж7,school,55.7332515,37.8269055
842,Гимназия №1519,school,55.8098064,37.4103014
843,Школа №89,school,55.8104311,37.3942645
844,Школа №1005,school,55.8073878,37.4523866
845,Школа №129,school,55.8076551,37.3978321
846,Школа №86,school,55.8076772,37.4020867
847,Гимназия №1519,school,55.8077165,37.4124939
848,Школа №1302,school,55.8078178,37.4154975
849,Школа № 705. Корпус 1,school,55.802679,37.3947935
850,Кадетская школа №1700,school,55.7972617,37.3967166
851,Школа №1155,school,55.7971119,37.4006397
852,"Школа ""Феникс""",school,55.797032,37.3985572
853,Школа №1286 корпус №106,school,55.8554369,37.4302119
854,Школа №1286,school,55.856944,37.4259166
855,Школа №659,school,55.7402539,37.4204932
856,Школа № 887. Учебный корпус № 3,school,55.7369387,37.4275372
857,"Курчатовская школа корпус ""Интеграция""",school,55.7900674,37.477882
858,Школа-лицей Возрождение,school,55.7947491,37.4596483
859,Школа № 1454 «Тимирязевская»,school,55.8240813,37.5676768
860,Кадетская школа № 1784 имени генерала армии В.А. Матросова,school,55.7848327,37.5744311
861,Экспериментальная школа (центр образования МЭШ),school,55.6545965,37.5642906
862,Школа №1598. Здание №4,school,55.8281604,37.8214628
863,Школа №1598. Здание №5,school,55.8280996,37.8180492
864,Школа №285 имени В. А. Молодцова,school,55.8769452,37.6244087
865,Школа № 656 им. А. С. Макаренко,school,55.8676155,37.5550262
866,Школа № 814. Учебный корпус № 1,school,55.7068301,37.4742622
867,Школа №815,school,55.708096,37.4755349
868,ГБОУ школа № 814 Учебный корпус 2,school,55.7079276,37.4757859
869,Финансовый университет при Правительстве РФ,university,55.7807701,37.7323325
870,Центр духовного развития молодежи,school,55.7119819,37.6318634
872,Школа №1532. Корпус школьного образования №05/3ш,school,55.6205856,37.4941386
873,Школа №1532. Корпус школьного образования №04,school,55.6202798,37.4924015
874,Школа №352,school,55.8319484,37.6639127
875,Школа №603,school,55.8250739,37.5238508
876,Школа №1515,school,55.7787929,37.4742991
877,Школа 2082,school,55.447722,37.5236381
878,Школа №166,school,55.9037048,37.5843294
879,"Школа №947, Кадетский корпус государственной дипломатической службы им. И.А. Рогачева",school,55.5841777,37.6651589
880,Школа №1168,school,55.8490037,37.4092765
881,ЦО 1456,school,55.5216813,37.548211
882,Московский Городской Педагогический Университет,university,55.8024202,37.5612931
883,Интернат №24,school,55.6528795,37.5907662
884,Частная школа детский сад «Лотос»,school,55.8929323,37.5899646
885,ГБОУ Школа № 1416 корпус № 2,school,55.8925641,37.5810127
886,Школа № 827,school,55.8529228,37.4125715
887,"ГБОУ Школа №1797 ""Богородская""",school,55.8119027,37.7152196
888,Средняя общеобразовательная школа №1449 с дошкольным отделением (Учебный корпус №5),school,55.8925968,37.5711057
889,Знак,school,55.8940178,37.5757154
890,Средняя общеобразовательная школа №1449 с дошкольным отделением (Учебный корпус №1),school,55.8950656,37.570219
891,Средняя общеобразовательная школа №1449 с дошкольным отделением (Учебный корпус №2),school,55.8971171,37.5715637
892,ГБОУ Школа № 1416 корпус № 1,school,55.8953733,37.5814333
893,Школа №1416,school,55.8934769,37.5813015
894,Школа № 2097. Корпус № 3,school,55.8485977,37.4376073
895,Гимназия №1540,school,55.7853154,37.5969853
896,Школа № 108,school,55.6761274,37.5510441
897,Школа № 58,school,55.6783805,37.5393496
898,"Школа ""Ника""",school,55.6543635,37.595068
899,Школа №180,school,55.8896209,37.6106233
900,Школа №225,school,55.824626,37.5153224
901,Центр образования № 1811 «Измайлово» – начальная школа,school,55.7960544,37.8088873
902,Школа № 1383. Корпус 2,school,55.8623681,37.5657504
903,Школа №2200 корпус 3,school,55.8060903,37.7967024
904,Школа №619,school,55.8077222,37.7885859
905,Центр развития творчества детей и юношества им. А.В. Косарева,school,55.8059688,37.7892282
906,Гимназия №1562 им. Артема Боровика,school,55.6654393,37.7507745
907,Интернат №72,school,55.6656442,37.6127148
910,ГБОУ Школа №2089,school,55.6844071,37.9183063
911,Школа №473,school,55.6389719,37.7976845
912,Школа №462,school,55.715703,37.673287
913,Вечерняя школа № 66 ЮВАО,school,55.7289623,37.6627126
914,Школа-интернат №9,school,55.695253,37.7522334
915,Школа №2090,school,55.7143899,37.7931079
916,"Школа №1321 ""Ковчег""",school,55.7445935,37.7192621
917,"Учебный центр ""МИР""",school,55.7591469,37.7002674
918,Школа №2048,school,55.7593184,37.5177825
919,Школа № 2115. Корпус школьного образования № 1,school,55.6724679,37.5667449
920,Школа №2048,school,55.7596434,37.5180806
921,Школа №1216,school,55.7350969,37.6725978
922,Гимназия № 45 имени Л. И. Мильграма Общеобразовательное отделение Новочеремушкинская 11а,school,55.6861165,37.5866625
923,Школа №1515,school,55.7803156,37.4769756
924,Школа №1381 ШО 3,school,55.8762716,37.6971147
925,Школа №313,school,55.8792135,37.7038627
926,Московский колледж градостроительства и предпринимательства,school,55.8841624,37.7136584
927,НТП «Соколиная гора» МИРЭА,university,55.7648822,37.7421041
928,Свято-Владимирская школа,school,55.7536688,37.6406339
929,Школа №1391 отделение 3,school,55.5342581,37.1642332
930,Школа №245,school,55.8911685,37.6130868
931,Гимназия №1551 корпус №3 (начальная школа),school,55.8460173,37.4513321
932,Гимназия №1551 корпус №2 (основное общее),school,55.8455084,37.449048
933,"АНО ""Школа ""Премьер""",school,55.6196757,37.7256132
934,Школа №939,school,55.6134721,37.7236603
935,Школа № 1392. Образовательная площадка Ш4,school,55.5499942,37.3239601
936,Школа №709,school,55.9152048,37.5483625
937,Школа № 1631 имени Героя Советского Союза В.П. Кислякова. Учебный корпус № 668,school,55.8962697,37.5323568
939,Школа №960,school,55.8884301,37.6074706
940,ГБОУ Марьинская школа № 1566 корпус 6,school,55.6483386,37.7564702
941,Школа № 1357 «На Братиславской». Здание №11,school,55.6663031,37.7577239
944,Школа №1412,school,55.8910098,37.6013674
945,Школа №255 (бывшая №195),school,55.8950083,37.6056973
946,Школа №1412,school,55.8932066,37.6040258
947,Гимназия №1573,school,55.9066289,37.5527003
948,Московский институт иностранных языков,university,55.7716802,37.6834399
949,Школа №534 корпус 2,school,55.6237996,37.7344389
950,"Школа № 2116, школьное отделение № 2",school,55.6179107,37.7512138
951,"Школа № 1552, здание №1",school,55.6197632,37.7470344
952,"Школа № 2116, Классика",school,55.6203789,37.749712
953,"Школа № 1552, здание №3",school,55.6180298,37.7468973
954,"Школа № 1552, здание №4",school,55.6167638,37.747139
955,Вечерняя сменная общеобразовательная школа №17,school,55.8077236,37.6433932
956,Школа №308,school,55.8072416,37.6421938
957,Специальная школа-интернат №1,school,55.8073825,37.6441465
958,Школа № 524,school,55.6462674,37.584172
960,Школа №318,school,55.8145672,37.723657
961,Школа №362,school,55.8138368,37.7286248
962,Всероссийская академия внешней торговли,university,55.7269455,37.5336008
963,Школа № 1940,school,55.9751225,37.1591238
964,Школа №222 (Корпус 2),school,55.8862611,37.5610346
965,Школа №192,school,55.706648,37.574794
966,Центр образования №118,school,55.6834934,37.5345025
967,Школа №847,school,55.882246,37.5222784
968,Школа №683,school,55.8895383,37.5245824
969,Красносельская школа-интернат,school,55.4234725,37.2962718
970,Троицкая Православная школа,school,55.4850074,37.2696969
971,Эрудит,school,55.80417,37.4599662
972,Школа № 2098 им. Героя Советского Союза Л.М. Доватора,school,55.8789895,37.5141932
973,Школа № 446,school,55.7838189,37.7059941
974,Школа № 1279,school,55.6600948,37.597322
975,Школа № 1794. Здание 10,school,55.8727403,37.5664443
976,Школа №272,school,55.8686323,37.5612752
977,Школа № 1245. Корпус школьного образования №3,school,55.6034944,37.6016657
978,Школа № 853,school,55.9851135,37.1905563
979,Школа № 853,school,55.9851055,37.1921376
980,"Школа № 338, Воскресенская школа",school,55.532231,37.4502882
981,Школа № 937,school,55.6231737,37.6971075
982,Московский городской детский телевизионный учебный центр,school,55.6222491,37.6978722
983,"ГБОУ Школа 1420, Корпус № 12",school,55.7001639,37.7872112
984,Школа №1532. Корпус школьного образования №03,school,55.6213366,37.4846388
985,"Прогимназия №1792 ""Остафьево""",school,55.5008046,37.489828
986,Школа №708,school,55.8033541,37.7675175
987,Центр образования №1468,school,55.7427716,37.6809029
988,Институт экономики бизнеса,university,55.7226415,37.6380475
989,Центр Образования №1874 (Начальная школа),school,55.805346,37.4673533
990,Школа № 1913,school,55.9725494,37.155792
991,Школа №365,school,55.8173651,37.7287664
992,Школа №442,school,55.8154922,37.7223619
993,Школа № 1450 Олимп,school,55.6586424,37.6113636
994,Школа №1450 Олимп,school,55.6578417,37.6123671
995,"Школа №1561, корпус 2",school,55.5996604,37.5423868
997,Школа №1360,school,55.815756,37.7110323
998,Школа №374,school,55.8163905,37.6974535
999,Школа №141,school,55.7790134,37.5144449
1000,Школа №1284,school,55.7678806,37.6384005
1001,Школа №2121 – школьный корпус №1,school,55.6846108,37.7539906
1002,ГБОУ школа № 463 Корпус №2,school,55.6843454,37.6815914
1003,"Школа ""Самсон""",school,55.6838128,37.6767863
1005,Лицей №1580,school,55.642702,37.6129445
1006,Центр образования №1865,school,55.7835789,37.5124591
1007,Школа №684,school,55.8078239,37.5158862
1008,Образовательный центр «Протон». Школа на Новозаводской,school,55.7521711,37.5044171
1009,Школа №1884,school,55.867521,37.5296699
1010,Класс-центр,school,55.8219276,37.5245478
1011,Школа №709,school,55.93803,37.5496134
1012,Государственный академический университет гуманитарных наук,university,55.732704,37.6090544
1013,школа №574,school,55.6790395,37.6543892
1014,школа №1251,school,55.7941805,37.5068391
1015,Школа № 2099. Здание 1,school,55.8177179,37.4930151
1016,Московский городской университет управления Правительства Москвы,university,55.7707841,37.633251
1017,Школа №508 с дошкольным отделением,school,55.5844758,37.6974443
1018,Школа №935,school,55.5822517,37.688997
1019,"Школа №283, отделение 7",school,55.885776,37.6676882
1020,Школа №1056 (начальная школа и общее образование),school,55.8481568,37.4438749
1021,Школа № 479,school,55.6971039,37.7728603
1022,Школа №109. Начальная школа,school,55.6426295,37.478506
1023,Школа № 2038,school,55.9732439,37.1658758
1024,Школа № 1161. Корпус 2,school,55.5415649,37.5632823
1025,Школа №1504,school,55.7628493,37.838228
1026,Школа №1598. Здание №6,school,55.8280182,37.8142915
1027,Гимназия №1595,school,55.6880348,37.9234868
1028,Школа №1514,school,55.6657508,37.5249624
1029,Школа №1374,school,55.8688359,37.7037404
1030,Гимназия №45,school,55.6852034,37.5982635
1031,РГУТиС,university,55.7262288,37.7850678
1032,Школа №445,school,55.7935435,37.7811988
1033,Школа № 777 имени Героя Советского Союза Е. В. Михайлова. Школьный корпус на Зарайской,school,55.7273187,37.7784155
1034,Школа №236,school,55.8841757,37.5228733
1035,Школа № 1392 им. Д. В. Рябинкина,school,55.5026148,37.3299425
1036,Школа №696,school,55.7646651,37.4843043
1037,"ВШЭ, школа дизайна",university,55.7873213,37.6417519
1038,Школа 1124,school,55.640031,37.336844
1039,Школа 1933,school,55.6465417,37.3498249
1040,Специальная коррекционная общеобразовательная школа-интернат №44,school,55.6425298,37.3327103
1041,Школа 1376,school,55.6488731,37.3407565
1042,ФОК Юность,school,55.993089,37.2066752
1043,Школа № 1353,school,55.9930923,37.193022
1044,"Школа №1352 (корпус на Новосибирской, 8А)",school,55.8158567,37.8227454
1045,Пушкинская школа № 1500. Здание на Скорняжном,school,55.7735481,37.6425694
1046,Школа №407,school,55.7239431,37.8121755
1047,Школа №813,school,55.7200325,37.8137074
1048,Школа №1032,school,55.7958595,37.7309944
1049,Школа №1505 (начальное),school,55.7969714,37.7384377
1050,Школа №219,school,55.9008996,37.5820941
1051,Частная начальная школа «Галилей»,school,55.8064823,37.6893833
1052,Школа № 854,school,55.9917248,37.2281748
1053,Школа № 854,school,55.990934,37.2336566
1054,Гимназия №1569 Созвездие,school,55.6174472,37.7392698
1055,Начальная школа - детский сад №1632,school,55.6149475,37.7342948
1056,"Школа № 949 (средняя школа, здание №1)",school,55.6088646,37.7539707
1057,"Школа № 2116, школьное отделение № 1",school,55.6207859,37.754642
1058,"Школа № 2116, школьное отделение № 3",school,55.6207962,37.7567888
1059,Школа № 1465 им. Н. Г. Кузнецова. Школьное отделение № 2,school,55.7478433,37.5679935
1060,Школа №2060,school,55.5219633,37.2122105
1061,Школа № 1528 им. Панфилова,school,55.9768508,37.1912331
1062,Лицей №1580,school,55.6415767,37.6126431
1063,Школа № 1528 им. Панфилова,school,55.9799639,37.1820846
1064,Школа №2033,school,55.8079228,37.7794539
1065,Школа №378,school,55.7949577,37.6963098
1066,Школа №1290 корпус №2,school,55.7888593,37.7795474
1067,Школа № 1987. Основная школа,school,55.6605666,37.7763621
1068,Центр образования №1426,school,55.5965294,37.6600262
1069,Институт профессионального образования и бизнеса,university,55.7437752,37.6741593
1070,Школа №1275,school,55.7837857,37.6070414
1071,Школа №1035,school,55.8202276,37.7539524
1072,Школа №373,school,55.8287111,37.7572137
1073,Школа №1246,school,55.8292877,37.7605578
1074,Школа №835,school,55.8271118,37.7524487
1075,Российский государственный торгово-экономический университет,university,55.8248378,37.7609667
1076,Гимназия №1572,school,55.7866458,37.6101903
1077,Школа № 1564 имени Героя Советского Союза А.П. Белобородова. Здание № 3,school,55.828158,37.3488596
1078,СОШ № 198,school,55.7064943,37.5835591
1079,Центр образования №449,school,55.7872543,37.7405437
1080,Московский городской педагогический университет,university,55.8336771,37.6430383
1081,"ДДТ ""Исток""",school,55.6341603,37.5897241
1082,Институт иностранных языков МГПУ,university,55.7937309,37.5730482
1083,Школа № 589,school,55.7182119,37.3938065
1084,Центр образования № 2045,school,55.9734069,37.1700133
1085,Школа №1499,school,55.8369942,37.6427461
1086,Гимназия №625,school,55.6923343,37.5928813
1087,Школа 2085,school,55.4184355,37.4108425
1088,ГБОУ Школа № 2129 ШО № 1,school,55.700345,37.6827521
1089,"ГБОУ Школа № 2129 ШО ""Начальная школа""",school,55.7038274,37.6813608
1090,Школа им. Маяковского. Учебный корпус «Пролетарка»,school,55.7294242,37.6662235
1091,Лицей № 1502 при МЭИ,school,55.7602789,37.8304424
1092,Школа-интернат №35,school,55.7872785,37.602729
1093,Школа с углубленным изучением отдельных предметов № 1794. Здание 12,school,55.8611353,37.5708535
1094,Школа №1995,school,55.6459557,37.4984602
1095,Школа №167,school,55.8605304,37.4793384
1096,"Школа №922 (учебный корпус ""Ивановский"")",school,55.7630246,37.8270038
1097,Гимназия МГУПС,school,55.8031976,37.6452612
1098,Школа №2083 Родники,school,55.4698532,37.5411937
1099,Гуманитарный институт,university,55.8011963,37.6463883
1100,Школа №259,school,55.7954085,37.600514
1101,Физико-математический лицей № 1524,school,55.6910038,37.7197552
1103,Школа № 1279,school,55.6633683,37.6035511
1104,Российская правовая академия Министерства юстиции Российской Федерации,university,55.6627249,37.6045684
1105,Школа №319 (здание №4),school,55.8124387,37.7893134
1106,"Школа ""Эдвайс""",school,55.8153211,37.791076
1107,Школа №319 (здание №3),school,55.8147538,37.7926827
1108,Лад,school,55.819317,37.7954182
1109,Гимназия № 1590 им. Героя Советского Союза В. В. Колесника,school,55.8627047,37.5029639
1110,Школа № 1538. Начальная школа,school,55.8415834,37.3886691
1111,Школа №2033,school,55.8059439,37.7866808
1112,Кадетская школа №1381 ШО2,school,55.8740201,37.6963064
1113,Школа №829,school,55.8589178,37.4101409
1114,Школа №1956,school,55.8028548,37.6105094
1115,Российский государственный геологоразведочный университет,university,55.6504904,37.5131264
1116,Российский университет медицины,university,55.7753654,37.604306
1117,Российский государственный социальный университет,university,55.8258831,37.719544
1118,Школа № 15. Корпус школьного образования № 1,school,55.6526899,37.5599967
1119,Институт русского языка им. А. С. Пушкина,university,55.6532303,37.5184218
1120,Школа №920,school,55.746911,37.7780788
1121,Школа №660,school,55.8673079,37.534496
1122,Школа № 656 имени А.С. Макаренко,school,55.8620898,37.5573871
1123,Лицей №1594,school,55.8641515,37.5405072
1124,Детский сад №1278,school,55.8651654,37.5345097
1125,Школа №662,school,55.8743239,37.5205347
1126,Детский сад №1776,school,55.8758559,37.5142108
1128,Начальная школа - детский сад №1883,school,55.7172537,37.8024957
1129,Лицей №1550,school,55.7824683,37.5596722
1130,"Школа Свиблово, корпус 1",school,55.8527443,37.64264
1131,"Школа Свиблово, корпус 6",school,55.8533937,37.6389169
1132,Школа № 1541. Корпус школьного образования,school,55.6671995,37.5088826
1133,Школа #1392 (корпус 3),school,55.4805494,37.391533
1134,English International School of Moscow,school,55.6674115,37.5062793
1135,Школа №1066,school,55.5755036,37.5742482
1139,Школа №1619 им. М.И. Цветаевой,school,55.7975416,37.4045384
1140,Школа № 1526. Корпус школьного образования,school,55.6028283,37.6202075
1141,Школа №1945,school,55.5706404,37.5848514
1142,Школа №274,school,55.8838799,37.6479545
1145,Школа № 2075,school,55.4263781,37.268295
1146,Школа 2073,school,55.3139501,37.1813759
1147,ЦО №1481,school,55.8744474,37.5189514
1148,Прогимназия №1882,school,55.7059982,37.8125093
1149,Московский городской детский морской центр им. Петра Великого,school,55.8386875,37.4843099
1150,Российский университет театрального искусства ГИТИС,university,55.7452401,37.6546115
1151,Институт математики и информатики ГОУ ВПО,university,55.703992,37.6199248
1152,Школа № 1150,school,55.9752266,37.1533415
1153,Школа №1912 им. Бауыржана Момышулы,school,55.9822435,37.1649332
1155,Школа № 1528 им. Панфилова,school,55.9785616,37.1828876
1156,Центр образования № 1613,school,55.5736443,37.5879085
1157,Школа № 1564 имени Героя Советского Союза А.П. Белобородова. Здание № 2,school,55.8321752,37.3540357
1158,Школа № 267,school,55.8721182,37.6092383
1159,ГБОУ школа № 2053,school,55.7055189,37.9191626
1160,Лицей № 1568 имени Пабло Неруды,school,55.8746603,37.6420919
1161,Школа №222,school,55.8818245,37.5615509
1162,Школа №1678,school,55.8917945,37.5603014
1163,Школа №1678,school,55.881696,37.5553788
1164,Центр образования №1419,school,55.8762384,37.563215
1165,Школа №1296,school,55.8773774,37.562658
1166,Гимназия №1592,school,55.8749908,37.5548261
1167,Школа № 1213. Корпус № 2,school,55.8424324,37.573629
1168,"Школа 117, дошкольное отделение",school,55.674477,37.5335477
1169,Seymour House School,school,55.802443,37.504716
1171,Школа №1347,school,55.6578873,37.4066232
1172,ГБОУ СОШ № 1793 СП2,school,55.6871174,37.8467692
1173,Школа №1935,school,55.6809832,37.8555932
1174,Прогимназия №1728,school,55.6425866,37.4083696
1175,Гимназия №1597,school,55.7092981,37.8163047
1176,Школа №1909,school,55.6864034,37.8615855
1177,Школа № 1011,school,55.6461625,37.4015994
1178,Школа №1003,school,55.6524505,37.4132294
1179,Гимназия №1583,school,55.8541414,37.5081683
1180,Школа №1096,school,55.8664031,37.698543
1181,Лицей №1581,school,55.7529689,37.6629017
1182,ГБОУ СОШ 480 Дошкольное отделение,school,55.7330202,37.6803981
1183,Школа №1295,school,55.7995926,37.4092562
1184,Гимназия № 1542,school,55.646799,37.3993457
1185,Российский институт театрального искусства — ГИТИС,university,55.754774,37.6034774
1186,Школа №1009,school,55.6453863,37.4092548
1187,Школа-интернат МГУ,school,55.6944382,37.5251815
1188,Школа №2120,school,55.5929898,37.3722061
1189,Гимназия №1520 им. Капцовых,school,55.7610236,37.6049075
1190,Школа №41,school,55.6143689,37.2953821
1191,АУЗ №4 НИУ ВШЭ,university,55.7618135,37.60615
1192,Школа №491,school,55.6489192,37.7220664
1193,Школа №1455,school,55.6512286,37.3672284
1194,Школа «УНА»,school,55.8780841,37.6494028
1195,Школа №237,school,55.7958019,37.6120739
1196,Школа №1000,school,55.6577805,37.3906932
1197,Школа №9,school,55.6630993,37.5237737
1198,Школа №9,school,55.6634794,37.524874
1199,Специализированная детско-юношеская школа олимпийского резерва №28,school,55.7587815,37.561584
1200,Школа №1366,school,55.6823558,37.9264708
1201,Школа № 113. Корпус №1,school,55.6374416,37.5163211
1202,"ЦО ОЦ ""Солнечный ветер""",school,55.6319114,37.4770452
1203,Школа № 1119,school,55.6891002,37.4974201
1204,ГБОУ Школа №825,school,55.7109869,37.7574233
1205,Школа № 2109. Корпус школьного образования «Олимп»,school,55.5032216,37.5794744
1206,Гимназия №1788. Отделение №4,school,55.6213249,37.3088423
1207,Школа на проспекте Вернадского. Корпус школьного образования 1,school,55.6535796,37.4836595
1208,ДЮШС №96 Борец,school,55.6394652,37.3596692
1209,Школа №1014,school,55.6400176,37.3622527
1210,Школа №1015,school,55.6393486,37.3634713
1211,Центр образования №1436,school,55.6342652,37.3811004
1212,Школа № 814,school,55.7053586,37.4661088
1214,Школа №1741,school,55.6665912,37.4554356
1215,Школа №484,school,55.7060609,37.742303
1216,"Школа №1748 ""Вертикаль"". Корпус №1",school,55.8051041,37.8280267
1217,Средняя общеобразовательная школа «Столичный - КИТ»,school,55.7173804,37.6146828
1218,Гимназия № 1570. Дошкольное отделение,school,55.7866261,37.5759701
1219,Школа № 2036,school,55.7038721,37.8644405
1220,Школа № 2074,school,55.3227809,37.3450942
1221,Школа #1493,school,55.6536248,37.7495045
1223,Школа №858,school,55.6158049,37.6021169
1224,Школа № 1582. Корпус школьного образования,school,55.617823,37.6007872
1225,"НП ЦО ""Лицей ""Столичный""",school,55.6168761,37.588356
1226,ГБОУ Школа № 2129 ШО №2,school,55.7063838,37.6722458
1227,Школа № 1538,school,55.8413691,37.3751662
1228,Школа «Интеграция XXI век»,school,55.8067043,37.4035636
1229,Школа № 2103. Корпус школьного образования №4,school,55.6029143,37.5176385
1230,Школа № 2103. Корпус школьного образования №3,school,55.6048558,37.5175329
1231,Школа № 2103. Корпус школьного образования №1,school,55.6068056,37.5169351
1232,Школа № 2103. Корпус школьного образования №2,school,55.6058422,37.5172227
1233,Школа № 2103. Корпус школьного образования №5,school,55.6072267,37.5205718
1235,Школа №1450 Олимп,school,55.6539415,37.6123343
1236,"Православная гимназия ""Радонеж""",school,55.5991123,37.5135717
1237,"Школа ""Выбор""",school,55.65794,37.6102343
1238,Школа № 1212. Корпус школьного образования №2,school,55.5993401,37.5175476
1239,Школа № 1212. Корпус школьного образования №1,school,55.5981508,37.5170961
1240,Школа № 1862. Корпус школьного образования №10,school,55.6461253,37.6121285
1241,Школа № 2042,school,55.6567778,37.588673
1243,Школа № 1212. Корпус школьного образования №4,school,55.6040732,37.5286177
1244,Школа № 1212. Корпус школьного образования №3,school,55.6015108,37.5267612
1245,Школа №937,school,55.6192688,37.7003505
1246,Школа № 1593,school,55.77077,37.4130062
1247,ГБОУ школа № 1527 Корпус 2,school,55.6821027,37.6879339
1248,Школа №556. Корпус школьного образования,school,55.6172075,37.5853168
1249,"ГБОУ Школа №1476, корпус №1",school,55.7771975,37.8315407
1250,"ГБОУ Школа №1476, корпус №2",school,55.7760923,37.8264817
1251,Москвич,school,55.6780027,37.5272994
1252,Школа № 1862. Корпус школьного образования №5,school,55.6509066,37.6144295
1253,Школа №726,school,55.8178257,37.5071475
1254,Центр образования №1685,school,55.7488656,37.6510548
1255,ГБОУ Школа №2104 на Таганке,school,55.7481513,37.6529405
1256,Гимназия №1583,school,55.8444754,37.4995778
1257,Российский православный университет,university,55.7575442,37.6278231
1258,ГБОУ Школа №1195,school,55.7170284,37.4196492
1259,Технорама на Юго-Востоке,school,55.714684,37.7804105
1260,Школа № 1220,school,55.8174951,37.627102
1261,Гимназия №1518,school,55.8166099,37.6294587
1262,Школа №7,school,55.6833967,37.5241144
1264,Школа №1264,school,55.6749372,37.5288398
1265,"Курчатовская школа ""Школа-интернат №101 (для слабослышащих)""",school,55.7878736,37.4502528
1266,Школа №547,school,55.7090957,37.619606
1267,"Школа № 630 имени дважды Героя Советского Союза Г.П. Кравченко. Здание ""На Роще""",school,55.7104506,37.6125525
1268,Школа № 14. Корпус школьного образования №1,school,55.662527,37.4657222
1269,Школа № 14. Корпус школьного образования №2,school,55.6588522,37.4673021
1270,Ломоносовская школа,school,55.7144431,37.4559731
1271,Ломоносовская школа,school,55.7133511,37.4564043
1272,Школа №97,school,55.7122262,37.4562088
1273,Классическое образование,school,55.7184322,37.4565557
1274,English Playschool Moscow,school,55.6790374,37.5366821
1275,Школа №830 корпус №1,school,55.8330794,37.4596075
1276,Московский психолого-социальный университет,university,55.7075913,37.6116421
1277,ГБОУ школа № 2083,school,55.4930368,37.5024495
1278,Лицей № 1547,school,55.6623122,37.7768224
1280,Школа №1532. Корпус школьного образования №02,school,55.6178991,37.493707
1281,Школа № 1103. Корпус школьного образования №6,school,55.6062815,37.5498466
1282,Британская Международная школа,school,55.5935377,37.5437821
1283,Школа № 924. Корпус школьного образования,school,55.5996094,37.6170891
1284,Школа №355,school,55.6951349,37.8230844
1285,Школа № 1454,school,55.8134542,37.5688665
1286,Школа № 843,school,55.6711324,37.4579789
1287,Школа №672,school,55.7495847,37.7822088
1288,"Гимназия №1798 ""Феникс""",school,55.752896,37.8139613
1290,Гимназия №1534 Школьное отделение №4,school,55.6877374,37.5812575
1291,"Школа № 1358, школьный корпус 1",school,55.8568288,37.3462912
1292,Гимназия №1551 корпус №1 (полное общее и гимназическое),school,55.8467929,37.4564324
1293,Школа № 1561. Корпус №3,school,55.6002397,37.533737
1294,Школа № 1561. Корпус №1,school,55.6007025,37.5374328
1295,"Центр образования №1877 ""Люблино""",school,55.6685781,37.7461851
1296,Школа №851,school,55.629689,37.6075114
1297,Школа №851,school,55.6279349,37.6062266
1298,"Лицей №138, отделение начальная школа",school,55.782451,37.4665567
1299,Центр образования №2010,school,55.6725204,37.7641608
1301,Гимназия №1576,school,55.8229834,37.5291763
1302,"Школа № 1288, корпус № 3",school,55.7735963,37.542007
1303,Школа № 1561. Начальная школа - корпус №10,school,55.6031895,37.5383104
1304,"Школа № 2126 ""Перово""",school,55.741556,37.7625178
1305,Школа №958,school,55.8687633,37.6091067
1306,"ГБУ ЦССВ ""Наш дом""",school,55.7514212,37.5036492
1308,Школа № 15. Корпус школьного образования № 4,school,55.661952,37.5704672
1309,Школа № 1329. Учебный корпус № 2,school,55.6735197,37.4731658
1310,Школа № 460 имени дважды Героев Советского Союза А.А. Головачёва и С.Ф. Шутова (ШП-2),school,55.6725105,37.7701674
1311,Центр образования №1490,school,55.9032254,37.5539903
1312,English International School,school,55.7491892,37.8224728
1313,Школа № 1747,school,55.8489957,37.3449575
1314,Школа №54,school,55.7237568,37.5703509
1315,"Центр образования ""Личность""",school,55.7193582,37.7892985
1316,"Лицей №138, отделение средняя школа",school,55.7810707,37.4673229
1317,Лицей №1575,school,55.8013012,37.5469938
1318,Школа №152,school,55.7958955,37.5452135
1319,Школа № 15. Корпус школьного образования № 3,school,55.6604236,37.5693012
1320,Школа № 12,school,55.7306206,37.5327473
1321,Центр образования № 1434,school,55.6907361,37.5003688
1322,Школа №2078,school,55.2127149,37.0749299
1323,Школа им. Хинксона,school,55.6748036,37.5765673
1324,"Школа №1352 (корпус на Щёлковском шс., 79А)",school,55.8130511,37.8077561
1325,Гимназия №1514,school,55.6850391,37.5265823
1326,Романовская школа,school,55.7727287,37.5779719
1327,Школа № 49,school,55.6472878,37.5369015
1328,"Центр образования и спорта ""Москва-98"". Школа № 3",school,55.6847896,37.4852296
1329,Школа №494 им. А. Н. Рожкова,school,55.704784,37.6557062
1330,Средняя школа №1811,school,55.7917401,37.8126744
1331,Центр образования № 628,school,55.6681172,37.6083376
1332,Школа №423,school,55.7586268,37.7975102
1333,Школа №1576,school,55.8387068,37.5340906
1334,"Школа №1352 (корпус на Байкальской, 44)",school,55.8152539,37.8147714
1335,ДШИ им. Ф.Шуберта,school,55.6773707,37.4956891
1336,Школа №1253 (начальные классы),school,55.7325984,37.5904657
1337,Школа № 7 филиал № 2,school,55.6783242,37.5222297
1338,Олимпия,school,55.6775725,37.5215053
1339,Школа №881,school,55.6018094,37.5839302
1340,Школа № 1248. Школьное здание 2,school,55.7215291,37.4678696
1341,Школа №97,school,55.7204483,37.460397
1342,"НОУ ""Британская международная школа""",school,55.6721614,37.5742829
1343,Вальдорфская семейная инициатива «Школа под солнцем»,school,55.6286849,37.4534843
1344,Школа № 1228. Корпус № 2,school,55.7539392,37.7113082
1345,Государственный музыкально-педагогический институт им. М. М. Ипполитова-Иванова,university,55.7344351,37.6658235
1347,Школа №962,school,55.8596609,37.5934956
1348,Школа №1516 (Основной корпус),school,55.8166613,37.831409
1349,Школа №1078 (Модуль №1),school,55.8186512,37.8079475
1350,Школа №49. Школьный корпус,school,55.6436293,37.5340588
1351,Школа №1076,school,55.8134114,37.8182652
1352,Школа № 1538. Начальная школа,school,55.8393119,37.3816413
1353,Школа № 2025,school,55.6777208,37.4462442
1355,Школа №1173,school,55.6168244,37.5945999
1357,Школа №2026 (учебный корпус №13),school,55.7211621,37.8941026
1358,Школа №2026 (учебный корпус №12),school,55.7206098,37.9074106
1359,Школа «Содружество». Учебный корпус №3,school,55.7635152,37.7032461
1360,"Школа № 967, школьное отделение №2",school,55.8803451,37.6421581
1361,Школа № 1279,school,55.6613381,37.5940904
1364,Романовская школа,school,55.7685951,37.5695966
1365,Школа № 461,school,55.70263,37.7692074
1366,Школа №368 (Здание №2),school,55.8222076,37.8200132
1367,Школа №1411,school,55.8669381,37.6007503
1368,Школа № 1514,school,55.6865191,37.5292895
1369,Международная академия бизнеса и управления,university,55.7980585,37.6200155
1370,Государственный институт усовершенствования врачей МО РФ,university,55.8009933,37.7156388
1371,"Школа № 842, корп. 163",school,56.0063955,37.2109251
1372,Школа № 629. Корпус школьного образования №5,school,55.5876227,37.5950827
1373,Школа № 629. Корпус школьного образования №4,school,55.591432,37.5965467
1376,Школа №760 им. А. П. Маресьева. Школьное отделение,school,55.87765,37.7149576
1377,Школа №760 им. А. П. Маресьева. Школьное отделение,school,55.8773705,37.7111649
1378,Училище олимпийского резерва № 1,school,55.7981421,37.8219185
1379,"Школа №1811 ""Восточное Измайлово"" корпус 4",school,55.7962876,37.8157306
1380,"Школа №1748 ""Вертикаль"". Корпуc №3 (для детей с особыми образовательными потребностями)",school,55.7991279,37.8259144
1381,"Школа №1748 ""Вертикаль"". Корпус 2",school,55.8023575,37.8332336
1382,Школа № 2045,school,55.9730063,37.1636101
1383,Школа №1811 (школьный корпус №6),school,55.8001185,37.8155549
